{"Afghanistan":{"None":{"Kabul":[{"latitude":34.5553494,"longitude":69.207486,"locationName":"Kabul"}]}},"Albania":{"None":{"Tirana":[{"latitude":41.3275459,"longitude":19.8186982,"locationName":"Tirana"}]}},"Algeria":{"None":{"Algiers":[{"latitude":36.7537703,"longitude":3.0587927,"locationName":"Algiers"}]}},"Angola":{"None":{"Luanda":[{"latitude":-8.8399876,"longitude":13.2894368,"locationName":"Luanda"}]}},"Antigua":{"None":{"Saint_Johns":[{"latitude":17.0746557,"longitude":-61.8175207,"locationName":"Saint_Johns"}]}},"Argentina":{"None":{"Bariloche":[{"latitude":-41.1334722,"longitude":-71.3102778,"locationName":"Bariloche"}],"Buenos_Aires":[{"latitude":-34.6036844,"longitude":-58.3815591,"locationName":"Buenos_Aires"}],"Campana":[{"latitude":-34.1633346,"longitude":-58.9592643,"locationName":"Campana"}],"Ceres":[{"latitude":-29.8817186,"longitude":-61.9460573,"locationName":"Ceres"}],"Cordoba":[{"latitude":-31.4200833,"longitude":-64.1887761,"locationName":"Cordoba"}],"Corrientes":[{"latitude":-27.4692131,"longitude":-58.8306349,"locationName":"Corrientes"}],"Formosa":[{"latitude":-26.1857768,"longitude":-58.1755669,"locationName":"Formosa"}],"General_Roca":[{"latitude":-39.0267525,"longitude":-67.5751724,"locationName":"General_Roca"}],"La_Plata":[{"latitude":-34.9204948,"longitude":-57.9535657,"locationName":"La_Plata"}],"La_Rioja":[{"latitude":-29.413454,"longitude":-66.856458,"locationName":"La_Rioja"}],"Mar_del_Plata":[{"latitude":-38.0054771,"longitude":-57.5426106,"locationName":"Mar_del_Plata"}],"Mendoza":[{"latitude":-32.8894587,"longitude":-68.8458386,"locationName":"Mendoza"}],"Moron":[{"latitude":-34.655861,"longitude":-58.616721,"locationName":"Moron"}],"Neuquen":[{"latitude":-38.9516784,"longitude":-68.0591888,"locationName":"Neuquen"}],"Parana":[{"latitude":-31.7413197,"longitude":-60.5115471,"locationName":"Parana"}],"Posadas":[{"latitude":-27.3621374,"longitude":-55.9008746,"locationName":"Posadas"}],"Rawson":[{"latitude":-43.2998581,"longitude":-65.0994873,"locationName":"Rawson"}],"Resistencia":[{"latitude":-27.4518622,"longitude":-58.9855547,"locationName":"Resistencia"}],"Rio_Gallegos":[{"latitude":-51.6230485,"longitude":-69.2168291,"locationName":"Rio_Gallegos"}],"Salta":[{"latitude":-24.7821269,"longitude":-65.4231976,"locationName":"Salta"}],"Santa_Fe":[{"latitude":-31.6106578,"longitude":-60.697294,"locationName":"Santa_Fe"}],"Santa_Rosa":[{"latitude":-36.620922,"longitude":-64.291237,"locationName":"Santa_Rosa"}],"Santiago_del_Estero":[{"latitude":-27.7833574,"longitude":-64.264167,"locationName":"Santiago_del_Estero"}],"San_Fernando_del_Valle":[{"latitude":-28.469581,"longitude":-65.7795441,"locationName":"San_Fernando_del_Valle"}],"San_Juan":[{"latitude":-31.535107,"longitude":-68.538594,"locationName":"San_Juan"}],"San_Luis":[{"latitude":-33.3017267,"longitude":-66.3377522,"locationName":"San_Luis"}],"San_Miguel_de_Tucuman":[{"latitude":-26.8082848,"longitude":-65.2175903,"locationName":"San_Miguel_de_Tucuman"}],"San_Pedro":[{"latitude":-33.6757835,"longitude":-59.6628664,"locationName":"San_Pedro"}],"San_Salvador_de_Jujuy":[{"latitude":-24.1857864,"longitude":-65.2994767,"locationName":"San_Salvador_de_Jujuy"}],"Ushuaia":[{"latitude":-54.8019121,"longitude":-68.3029511,"locationName":"Ushuaia"}],"Viedma":[{"latitude":-40.8119087,"longitude":-62.9962044,"locationName":"Viedma"}]}},"Aruba":{"None":{"Oranjestad":[{"latitude":12.5092044,"longitude":-70.0086306,"locationName":"Oranjestad"}]}},"Australia":{"ACT":{"Canberra":[{"latitude":-35.2809368,"longitude":149.1300092,"locationName":"Canberra"}]},"New_South_Wales":{"Albury":[{"latitude":-36.0737293,"longitude":146.9135418,"locationName":"Albury"}],"Armidale":[{"latitude":-30.5015616,"longitude":151.6661993,"locationName":"Armidale"}],"Broken_Hill":[{"latitude":-31.9539135,"longitude":141.4539396,"locationName":"Broken_Hill"}],"Casino":[{"latitude":-28.866667,"longitude":153.05,"locationName":"Casino"}],"Cessnock":[{"latitude":-32.8345098,"longitude":151.3624266,"locationName":"Cessnock"}],"Coffs_Harbour":[{"latitude":-30.298612,"longitude":153.1093922,"locationName":"Coffs_Harbour"}],"Coonabarabran":[{"latitude":-31.2733434,"longitude":149.219061,"locationName":"Coonabarabran"}],"Cootamundra":[{"latitude":-34.641667,"longitude":148.025,"locationName":"Cootamundra"}],"Forster":[{"latitude":-32.180556,"longitude":152.511667,"locationName":"Forster"}],"Grafton":[{"latitude":-29.6816894,"longitude":152.9336547,"locationName":"Grafton"}],"Griffith":[{"latitude":-34.2800883,"longitude":146.0455313,"locationName":"Griffith"}],"Khancoban":[{"latitude":-36.22,"longitude":148.126944,"locationName":"Khancoban"}],"Kurri_Kurri":[{"latitude":-32.816667,"longitude":151.483333,"locationName":"Kurri_Kurri"}],"Lake_Macquarie":[{"latitude":-33.0539197,"longitude":151.6432586,"locationName":"Lake_Macquarie"}],"Lismore":[{"latitude":-28.8093154,"longitude":153.2882876,"locationName":"Lismore"}],"Lithgow":[{"latitude":-33.4827345,"longitude":150.1570173,"locationName":"Lithgow"}],"Nelson_Bay":[{"latitude":-32.715,"longitude":152.151111,"locationName":"Nelson_Bay"}],"Newcastle":[{"latitude":-32.928333,"longitude":151.781667,"locationName":"Newcastle"}],"Parkes":[{"latitude":-33.1372943,"longitude":148.1747161,"locationName":"Parkes"}],"Penrith":[{"latitude":-33.75,"longitude":150.7,"locationName":"Penrith"}],"Sydney":[{"latitude":-33.8688197,"longitude":151.2092955,"locationName":"Sydney"}],"Tamworth":[{"latitude":-31.092748,"longitude":150.9320334,"locationName":"Tamworth"}],"Tweed_Heads":[{"latitude":-28.1786656,"longitude":153.5370011,"locationName":"Tweed_Heads"}],"Wagga_Wagga":[{"latitude":-35.1081689,"longitude":147.3598323,"locationName":"Wagga_Wagga"}],"Wollongong":[{"latitude":-34.4278121,"longitude":150.8930607,"locationName":"Wollongong"}]},"Norfolk_Island":{"Kingston":[{"latitude":-29.0563937,"longitude":167.959588,"locationName":"Kingston"}]},"Northern_Territory":{"Alice_Springs":[{"latitude":-23.698042,"longitude":133.8807471,"locationName":"Alice_Springs"}],"Darwin":[{"latitude":-12.4634403,"longitude":130.8456418,"locationName":"Darwin"}],"Katherine":[{"latitude":-14.4521139,"longitude":132.2715145,"locationName":"Katherine"}]},"Queensland":{"Bowen":[{"latitude":-20.0014803,"longitude":148.2262176,"locationName":"Bowen"}],"Brisbane":[{"latitude":-27.4697707,"longitude":153.0251235,"locationName":"Brisbane"}],"Cairns":[{"latitude":-16.9185514,"longitude":145.7780548,"locationName":"Cairns"}],"Caloundra":[{"latitude":-26.799,"longitude":153.133,"locationName":"Caloundra"}],"Emerald":[{"latitude":-23.527291,"longitude":148.164573,"locationName":"Emerald"}],"Gladstone":[{"latitude":-23.8426494,"longitude":151.2488592,"locationName":"Gladstone"}],"Mackay":[{"latitude":-21.1424956,"longitude":149.1821469,"locationName":"Mackay"}],"Maryborough":[{"latitude":-25.5232627,"longitude":152.6970636,"locationName":"Maryborough"}],"Rockhampton":[{"latitude":-23.3790772,"longitude":150.510016,"locationName":"Rockhampton"}],"Toowoomba":[{"latitude":-27.5598212,"longitude":151.9506696,"locationName":"Toowoomba"}],"Townsville":[{"latitude":-19.2589635,"longitude":146.8169483,"locationName":"Townsville"}]},"South_Australia":{"Adelaide":[{"latitude":-34.9284989,"longitude":138.6007456,"locationName":"Adelaide"}],"Leigh_Creek":[{"latitude":-30.5908141,"longitude":138.3992865,"locationName":"Leigh_Creek"}],"Peterborough":[{"latitude":-32.974213,"longitude":138.8343623,"locationName":"Peterborough"}],"Woomera":[{"latitude":-31.1656389,"longitude":136.8192607,"locationName":"Woomera"}]},"Tasmania":{"Burnie":[{"latitude":-41.0528583,"longitude":145.9052168,"locationName":"Burnie"}],"Hobart":[{"latitude":-42.8821377,"longitude":147.3271949,"locationName":"Hobart"}],"Launceston":[{"latitude":-41.4332215,"longitude":147.1440875,"locationName":"Launceston"}]},"Victoria":{"Ballarat":[{"latitude":-37.5621587,"longitude":143.8502556,"locationName":"Ballarat"}],"Benalla":[{"latitude":-36.5462177,"longitude":145.963353,"locationName":"Benalla"}],"Bendigo":[{"latitude":-36.7570157,"longitude":144.2793906,"locationName":"Bendigo"}],"Cobram":[{"latitude":-35.966667,"longitude":145.65,"locationName":"Cobram"}],"Dandenong":[{"latitude":-37.981,"longitude":145.215,"locationName":"Dandenong"}],"Melbourne":[{"latitude":-37.8136276,"longitude":144.9630576,"locationName":"Melbourne"}],"Mildura":[{"latitude":-34.2080167,"longitude":142.1245535,"locationName":"Mildura"}],"Pakenham":[{"latitude":-38.073568,"longitude":145.4851308,"locationName":"Pakenham"}],"Sale":[{"latitude":-38.1026004,"longitude":147.073027,"locationName":"Sale"}],"Shepparton":[{"latitude":-36.383333,"longitude":145.4,"locationName":"Shepparton"}],"Sunbury":[{"latitude":-37.581111,"longitude":144.713889,"locationName":"Sunbury"}],"Traralgon":[{"latitude":-38.2033531,"longitude":146.519786,"locationName":"Traralgon"}],"Tylden":[{"latitude":-37.3194005,"longitude":144.4052024,"locationName":"Tylden"}],"Warrnambool":[{"latitude":-38.3686779,"longitude":142.4982086,"locationName":"Warrnambool"}],"Yarram":[{"latitude":-38.565594,"longitude":146.6751045,"locationName":"Yarram"}]},"Western_Australia":{"Albany":[{"latitude":-35.0275298,"longitude":117.883959,"locationName":"Albany"}],"Augusta":[{"latitude":-34.293246,"longitude":115.139245,"locationName":"Augusta"}],"Balladonia":[{"latitude":-32.2505105,"longitude":124.1889498,"locationName":"Balladonia"}],"Broome":[{"latitude":-17.9614336,"longitude":122.235852,"locationName":"Broome"}],"Bunbury":[{"latitude":-33.325636,"longitude":115.6396494,"locationName":"Bunbury"}],"Carnarvon":[{"latitude":-24.884,"longitude":113.661,"locationName":"Carnarvon"}],"Cocklebiddy":[{"latitude":-32.0376086,"longitude":126.097027,"locationName":"Cocklebiddy"}],"Derby":[{"latitude":-17.3179064,"longitude":123.6490372,"locationName":"Derby"}],"Esperance":[{"latitude":-33.8608027,"longitude":121.8896205,"locationName":"Esperance"}],"Eucla":[{"latitude":-31.6772316,"longitude":128.8897862,"locationName":"Eucla"}],"Exmouth":[{"latitude":-21.9445261,"longitude":114.1313015,"locationName":"Exmouth"}],"Fitzroy_Crossing":[{"latitude":-18.1906989,"longitude":125.567496,"locationName":"Fitzroy_Crossing"}],"Geraldton":[{"latitude":-28.7773715,"longitude":114.6149715,"locationName":"Geraldton"}],"Kalgoorlie":[{"latitude":-30.749,"longitude":121.466,"locationName":"Kalgoorlie"}],"Karratha":[{"latitude":-20.73535,"longitude":116.8458043,"locationName":"Karratha"}],"Kununurra":[{"latitude":-15.7785409,"longitude":128.7416854,"locationName":"Kununurra"}],"Lake_Grace":[{"latitude":-33.1,"longitude":118.46,"locationName":"Lake_Grace"}],"Laverton":[{"latitude":-28.628,"longitude":122.403,"locationName":"Laverton"}],"Manjimup":[{"latitude":-34.2455371,"longitude":116.1442778,"locationName":"Manjimup"}],"Meekatharra":[{"latitude":-26.593611,"longitude":118.495278,"locationName":"Meekatharra"}],"Merredin":[{"latitude":-31.4837097,"longitude":118.2770821,"locationName":"Merredin"}],"Mount_Magnet":[{"latitude":-28.06,"longitude":117.846111,"locationName":"Mount_Magnet"}],"Norseman":[{"latitude":-32.196,"longitude":121.778,"locationName":"Norseman"}],"Northam":[{"latitude":-31.6525301,"longitude":116.6654836,"locationName":"Northam"}],"Perth":[{"latitude":-31.9505269,"longitude":115.8604572,"locationName":"Perth"}],"Port_Hedland":[{"latitude":-20.3106621,"longitude":118.5878223,"locationName":"Port_Hedland"}],"Rawlinna":[{"latitude":-30.7641012,"longitude":125.3836191,"locationName":"Rawlinna"}],"Southern_Cross":[{"latitude":-31.230556,"longitude":119.327778,"locationName":"Southern_Cross"}],"Tom_Price":[{"latitude":-22.6938735,"longitude":117.7938645,"locationName":"Tom_Price"}],"Wagin":[{"latitude":-33.3053993,"longitude":117.3474325,"locationName":"Wagin"}],"Warburton":[{"latitude":-26.1352581,"longitude":126.5782945,"locationName":"Warburton"}],"Wiluna":[{"latitude":-26.595,"longitude":120.225,"locationName":"Wiluna"}],"Wubin":[{"latitude":-30.0803525,"longitude":116.6136935,"locationName":"Wubin"}],"Wyndham":[{"latitude":-15.4825,"longitude":128.122778,"locationName":"Wyndham"}],"Yampi_Sound":[{"latitude":-16.1333333,"longitude":123.6333333,"locationName":"Yampi_Sound"}]}},"Austria":{"None":{"Baden":[{"latitude":48.00214,"longitude":16.23091,"locationName":"Baden"}],"Eibiswald":[{"latitude":46.6883735,"longitude":15.2464264,"locationName":"Eibiswald"}],"Gmunden":[{"latitude":47.91839,"longitude":13.79933,"locationName":"Gmunden"}],"Graz":[{"latitude":47.070714,"longitude":15.439504,"locationName":"Graz"}],"Horn":[{"latitude":48.66607,"longitude":15.65716,"locationName":"Horn"}],"Innsbruck":[{"latitude":47.2692124,"longitude":11.4041024,"locationName":"Innsbruck"}],"Judenburg":[{"latitude":47.16826,"longitude":14.65811,"locationName":"Judenburg"}],"Kapfenberg":[{"latitude":47.4433293,"longitude":15.2791914,"locationName":"Kapfenberg"}],"Klagenfurt":[{"latitude":46.6364598,"longitude":14.3122246,"locationName":"Klagenfurt"}],"Linz":[{"latitude":48.30694,"longitude":14.28583,"locationName":"Linz"}],"Melk":[{"latitude":48.233,"longitude":15.333,"locationName":"Melk"}],"Modling":[{"latitude":48.08255,"longitude":16.2869,"locationName":"Modling"}],"Murau":[{"latitude":47.11304,"longitude":14.16904,"locationName":"Murau"}],"Vienna":[{"latitude":48.2081743,"longitude":16.3738189,"locationName":"Vienna"}],"Vocklabruck":[{"latitude":48.00334,"longitude":13.65613,"locationName":"Vocklabruck"}],"Waidhofen":[{"latitude":47.96023,"longitude":14.77283,"locationName":"Waidhofen"}]}},"Bahamas":{"None":{"Andros_Island":[{"latitude":24.7063805,"longitude":-78.0195387,"locationName":"Andros_Island"}],"Big_Major_Cay":[{"latitude":24.1836,"longitude":-76.4563,"locationName":"Big_Major_Cay"}],"Nassau":[{"latitude":25.0479835,"longitude":-77.355413,"locationName":"Nassau"}]}},"Bahrain":{"None":{"Manama":[{"latitude":26.2285161,"longitude":50.5860497,"locationName":"Manama"}]}},"Bangladesh":{"None":{"Chittagong":[{"latitude":22.3475365,"longitude":91.8123324,"locationName":"Chittagong"}],"Dhaka":[{"latitude":23.7716426,"longitude":90.4014785,"locationName":"Dhaka"}]}},"Barbados":{"None":{"Bridgetown":[{"latitude":13.1132219,"longitude":-59.5988089,"locationName":"Bridgetown"}]}},"Belarus":{"None":{"Bobruisk":[{"latitude":53.1446069,"longitude":29.2213753,"locationName":"Bobruisk"}],"Brest":[{"latitude":52.097621,"longitude":23.73405,"locationName":"Brest"}],"Gomel":[{"latitude":52.4411761,"longitude":30.9878462,"locationName":"Gomel"}],"Hrodna":[{"latitude":53.6693538,"longitude":23.8131306,"locationName":"Hrodna"}],"Minsk":[{"latitude":53.9045398,"longitude":27.5615244,"locationName":"Minsk"}],"Mogilev":[{"latitude":53.9007159,"longitude":30.3313598,"locationName":"Mogilev"}],"Viciebsk":[{"latitude":55.1848061,"longitude":30.201622,"locationName":"Viciebsk"}]}},"Belgium":{"None":{"Aalst":[{"latitude":50.9378101,"longitude":4.0409517,"locationName":"Aalst"}],"Antwerp":[{"latitude":51.2194475,"longitude":4.4024643,"locationName":"Antwerp"}],"Bruges":[{"latitude":51.209348,"longitude":3.2246995,"locationName":"Bruges"}],"Brussels":[{"latitude":50.8503396,"longitude":4.3517103,"locationName":"Brussels"}],"Charleroi":[{"latitude":50.4108095,"longitude":4.444643,"locationName":"Charleroi"}],"Eeklo":[{"latitude":51.1852719,"longitude":3.5638899,"locationName":"Eeklo"}],"Eupen":[{"latitude":50.6292029,"longitude":6.0337111,"locationName":"Eupen"}],"Ghent":[{"latitude":51.0543422,"longitude":3.7174243,"locationName":"Ghent"}],"Huy":[{"latitude":50.5187153,"longitude":5.2396656,"locationName":"Huy"}],"Liege":[{"latitude":50.6325574,"longitude":5.5796662,"locationName":"Liege"}],"Namur":[{"latitude":50.4673883,"longitude":4.8719854,"locationName":"Namur"}],"Schaerbeek":[{"latitude":50.8674164,"longitude":4.3772981,"locationName":"Schaerbeek"}],"Torhout":[{"latitude":51.06498,"longitude":3.10157,"locationName":"Torhout"}],"Waterloo":[{"latitude":50.71469,"longitude":4.3991,"locationName":"Waterloo"}],"Wervik":[{"latitude":50.7841386,"longitude":3.0448969,"locationName":"Wervik"}]}},"Belize":{"None":{"Belize_City":[{"latitude":17.5045661,"longitude":-88.1962133,"locationName":"Belize_City"}]}},"Bermuda":{"None":{"Hamilton":[{"latitude":32.294816,"longitude":-64.781375,"locationName":"Hamilton"}],"St_George":[{"latitude":32.366861,"longitude":-64.683646,"locationName":"St_George"}]}},"Bolivia":{"None":{"Cochabamba":[{"latitude":-17.4139766,"longitude":-66.1653224,"locationName":"Cochabamba"}],"La_Paz":[{"latitude":-16.489689,"longitude":-68.1192936,"locationName":"La_Paz"}],"Santa_Cruz":[{"latitude":-17.814582,"longitude":-63.156085,"locationName":"Santa_Cruz"}]}},"Bonaire":{"None":{"Kralendijk":[{"latitude":12.1443491,"longitude":-68.2655456,"locationName":"Kralendijk"}]}},"Bosnia":{"None":{"Sarajevo":[{"latitude":43.8562586,"longitude":18.4130763,"locationName":"Sarajevo"}],"Tuzla":[{"latitude":44.533,"longitude":18.683,"locationName":"Tuzla"}]}},"Botswana":{"None":{"Gaborone":[{"latitude":-24.6282079,"longitude":25.9231471,"locationName":"Gaborone"}]}},"Brazil":{"None":{"Aracaju":[{"latitude":-10.9472468,"longitude":-37.0730823,"locationName":"Aracaju"}],"Bauru":[{"latitude":-22.314459,"longitude":-49.0586951,"locationName":"Bauru"}],"Belem":[{"latitude":-1.4557549,"longitude":-48.4901799,"locationName":"Belem"}],"Belo_Horizonte":[{"latitude":-19.9324906,"longitude":-44.0080435,"locationName":"Belo_Horizonte"}],"Blumenau":[{"latitude":-26.9165792,"longitude":-49.0717331,"locationName":"Blumenau"}],"Boa_Vista":[{"latitude":2.8235098,"longitude":-60.6758331,"locationName":"Boa_Vista"}],"Brasilia":[{"latitude":-15.794229,"longitude":-47.882166,"locationName":"Brasilia"}],"Campinas":[{"latitude":-22.9099384,"longitude":-47.0626332,"locationName":"Campinas"}],"Campina_Grande":[{"latitude":-7.2290752,"longitude":-35.8808337,"locationName":"Campina_Grande"}],"Campo_Grande":[{"latitude":-20.4697105,"longitude":-54.6201211,"locationName":"Campo_Grande"}],"Cascavel":[{"latitude":-24.9577771,"longitude":-53.4595112,"locationName":"Cascavel"}],"Caxias_do_Sul":[{"latitude":-29.1634031,"longitude":-51.1796683,"locationName":"Caxias_do_Sul"}],"Cuiaba":[{"latitude":-15.6014109,"longitude":-56.0978917,"locationName":"Cuiaba"}],"Curitiba":[{"latitude":-25.4289541,"longitude":-49.267137,"locationName":"Curitiba"}],"Florianopolis":[{"latitude":-27.5953778,"longitude":-48.5480499,"locationName":"Florianopolis"}],"Fortaleza":[{"latitude":-3.7318616,"longitude":-38.5266704,"locationName":"Fortaleza"}],"Goiania":[{"latitude":-16.6868912,"longitude":-49.2647943,"locationName":"Goiania"}],"Guarulhos":[{"latitude":-23.4542498,"longitude":-46.5337925,"locationName":"Guarulhos"}],"Jacarei":[{"latitude":-23.2987827,"longitude":-45.9662542,"locationName":"Jacarei"}],"Joao_Pessoa":[{"latitude":-7.1817487,"longitude":-34.869841,"locationName":"Joao_Pessoa"}],"Juiz_de_Fora":[{"latitude":-21.7624237,"longitude":-43.3433999,"locationName":"Juiz_de_Fora"}],"Limeira":[{"latitude":-22.5665354,"longitude":-47.3974368,"locationName":"Limeira"}],"Macae":[{"latitude":-22.3836705,"longitude":-41.7827461,"locationName":"Macae"}],"Macapa":[{"latitude":0.0355735,"longitude":-51.070535,"locationName":"Macapa"}],"Maceio":[{"latitude":-9.6498487,"longitude":-35.7089492,"locationName":"Maceio"}],"Manaus":[{"latitude":-3.1190275,"longitude":-60.0217314,"locationName":"Manaus"}],"Maraba":[{"latitude":-5.3811357,"longitude":-49.1331024,"locationName":"Maraba"}],"Natal":[{"latitude":-5.7792569,"longitude":-35.200916,"locationName":"Natal"}],"Palmas":[{"latitude":-10.249091,"longitude":-48.3242858,"locationName":"Palmas"}],"Patos_de_Minas":[{"latitude":-18.5872582,"longitude":-46.5146749,"locationName":"Patos_de_Minas"}],"Piracicaba":[{"latitude":-22.7342864,"longitude":-47.6480644,"locationName":"Piracicaba"}],"Pocos_de_Caldas":[{"latitude":-21.7853787,"longitude":-46.5619303,"locationName":"Pocos_de_Caldas"}],"Porto_Alegre":[{"latitude":-30.0346471,"longitude":-51.2176584,"locationName":"Porto_Alegre"}],"Porto_Velho":[{"latitude":-8.7611605,"longitude":-63.9004303,"locationName":"Porto_Velho"}],"Recife":[{"latitude":-8.0578381,"longitude":-34.8828969,"locationName":"Recife"}],"Ribeirao_Preto":[{"latitude":-21.1704008,"longitude":-47.8103238,"locationName":"Ribeirao_Preto"}],"Rio_Branco":[{"latitude":-9.975377,"longitude":-67.8248977,"locationName":"Rio_Branco"}],"Rio_Claro":[{"latitude":-22.4149023,"longitude":-47.5651394,"locationName":"Rio_Claro"}],"Rio_de_Janeiro":[{"latitude":-22.9068467,"longitude":-43.1728965,"locationName":"Rio_de_Janeiro"}],"Salvador":[{"latitude":-12.9730401,"longitude":-38.502304,"locationName":"Salvador"}],"Santa_Maria":[{"latitude":-29.6873064,"longitude":-53.8154769,"locationName":"Santa_Maria"}],"Santos":[{"latitude":-23.9678823,"longitude":-46.3288865,"locationName":"Santos"}],"Sao_Goncalo":[{"latitude":-22.8272883,"longitude":-43.0637646,"locationName":"Sao_Goncalo"}],"Sao_Luis":[{"latitude":-2.5391099,"longitude":-44.2829046,"locationName":"Sao_Luis"}],"Sao_Mateus":[{"latitude":-18.7191438,"longitude":-39.8567437,"locationName":"Sao_Mateus"}],"Sao_Paulo":[{"latitude":-23.5505199,"longitude":-46.6333094,"locationName":"Sao_Paulo"}],"Teresina":[{"latitude":-5.0446853,"longitude":-42.7662325,"locationName":"Teresina"}],"Teresopolis":[{"latitude":-22.4169605,"longitude":-42.9756016,"locationName":"Teresopolis"}],"Tiete":[{"latitude":-23.0972163,"longitude":-47.7144578,"locationName":"Tiete"}],"Tres_Pontas":[{"latitude":-21.3699248,"longitude":-45.5113164,"locationName":"Tres_Pontas"}],"Vila_Velha":[{"latitude":-20.3477821,"longitude":-40.2949528,"locationName":"Vila_Velha"}],"Vitoria_da_Conquista":[{"latitude":-14.845066,"longitude":-40.8861365,"locationName":"Vitoria_da_Conquista"}],"Votorantim":[{"latitude":-23.540286,"longitude":-47.4445978,"locationName":"Votorantim"}]}},"Brunei":{"None":{"Bandar_Seri_Begawan":[{"latitude":4.9030522,"longitude":114.939821,"locationName":"Bandar_Seri_Begawan"}]}},"Bulgaria":{"None":{"Sofia":[{"latitude":42.6977082,"longitude":23.3218675,"locationName":"Sofia"}]}},"Cameroon":{"None":{"Douala":[{"latitude":4.0510564,"longitude":9.7678687,"locationName":"Douala"}],"Yaounde":[{"latitude":3.8480325,"longitude":11.5020752,"locationName":"Yaounde"}]}},"Canada":{"Alberta":{"Calgary":[{"latitude":51.0486151,"longitude":-114.0708459,"locationName":"Calgary"}],"Camrose":[{"latitude":53.0222045,"longitude":-112.8285983,"locationName":"Camrose"}],"Cold_Lake":[{"latitude":54.4643173,"longitude":-110.1731468,"locationName":"Cold_Lake"}],"Drayton_Valley":[{"latitude":53.2214074,"longitude":-114.9766786,"locationName":"Drayton_Valley"}],"Edmonton":[{"latitude":53.544389,"longitude":-113.4909267,"locationName":"Edmonton"}],"Fort_McMurray":[{"latitude":56.7263796,"longitude":-111.3803407,"locationName":"Fort_McMurray"}],"Fort_Saskatchewan":[{"latitude":53.7007157,"longitude":-113.2094659,"locationName":"Fort_Saskatchewan"}],"Grande_Prairie":[{"latitude":55.1699396,"longitude":-118.7986152,"locationName":"Grande_Prairie"}],"Lac_La_Biche":[{"latitude":54.7696415,"longitude":-111.972514,"locationName":"Lac_La_Biche"}],"Lethbridge":[{"latitude":49.69349,"longitude":-112.84184,"locationName":"Lethbridge"}],"Lloydminster":[{"latitude":53.2779625,"longitude":-110.0061451,"locationName":"Lloydminster"}],"Medicine_Hat":[{"latitude":50.0405486,"longitude":-110.6764258,"locationName":"Medicine_Hat"}],"Millet":[{"latitude":53.0920817,"longitude":-113.4702831,"locationName":"Millet"}],"Red_Deer":[{"latitude":52.2681118,"longitude":-113.8112386,"locationName":"Red_Deer"}],"Rocky_Mountain_House":[{"latitude":52.3793432,"longitude":-114.9182883,"locationName":"Rocky_Mountain_House"}],"Westlock":[{"latitude":54.1521565,"longitude":-113.851419,"locationName":"Westlock"}]},"British_Columbia":{"100_Mile_House":[{"latitude":51.6439705,"longitude":-121.2950097,"locationName":"100_Mile_House"}],"Abbotsford":[{"latitude":49.054587,"longitude":-122.328026,"locationName":"Abbotsford"}],"Burnaby":[{"latitude":49.2488091,"longitude":-122.9805104,"locationName":"Burnaby"}],"Castlegar":[{"latitude":49.3237408,"longitude":-117.6593341,"locationName":"Castlegar"}],"Chetwynd":[{"latitude":55.6976802,"longitude":-121.6296734,"locationName":"Chetwynd"}],"Chilliwack":[{"latitude":49.1579401,"longitude":-121.9514666,"locationName":"Chilliwack"}],"Coquitlam":[{"latitude":49.2837626,"longitude":-122.7932065,"locationName":"Coquitlam"}],"Courtenay":[{"latitude":49.6841391,"longitude":-124.9904493,"locationName":"Courtenay"}],"Cranbrook":[{"latitude":49.5129678,"longitude":-115.7694002,"locationName":"Cranbrook"}],"Creston":[{"latitude":49.0955401,"longitude":-116.5135079,"locationName":"Creston"}],"Fort_Saint_John":[{"latitude":56.252423,"longitude":-120.846409,"locationName":"Fort_Saint_John"}],"Gold_River":[{"latitude":49.7781637,"longitude":-126.0496149,"locationName":"Gold_River"}],"Kamloops":[{"latitude":50.674522,"longitude":-120.3272674,"locationName":"Kamloops"}],"Kelowna":[{"latitude":49.8879519,"longitude":-119.4960106,"locationName":"Kelowna"}],"Kimberley":[{"latitude":49.6651567,"longitude":-115.9967206,"locationName":"Kimberley"}],"Merritt":[{"latitude":50.1113079,"longitude":-120.7862222,"locationName":"Merritt"}],"Nanaimo":[{"latitude":49.1658836,"longitude":-123.9400647,"locationName":"Nanaimo"}],"Nelson":[{"latitude":49.4928119,"longitude":-117.2948343,"locationName":"Nelson"}],"Penticton":[{"latitude":49.4991381,"longitude":-119.5937077,"locationName":"Penticton"}],"Port_Alberni":[{"latitude":49.2338882,"longitude":-124.8055494,"locationName":"Port_Alberni"}],"Powell_River":[{"latitude":49.8352352,"longitude":-124.5247062,"locationName":"Powell_River"}],"Prince_George":[{"latitude":53.9170641,"longitude":-122.7496693,"locationName":"Prince_George"}],"Richmond":[{"latitude":49.1665898,"longitude":-123.133569,"locationName":"Richmond"}],"Sandspit":[{"latitude":53.243025,"longitude":-131.820879,"locationName":"Sandspit"}],"Sidney":[{"latitude":48.6502411,"longitude":-123.399005,"locationName":"Sidney"}],"Surrey":[{"latitude":49.1044302,"longitude":-122.801094,"locationName":"Surrey"}],"Terrace":[{"latitude":54.5181925,"longitude":-128.603154,"locationName":"Terrace"}],"Vancouver":[{"latitude":49.2827291,"longitude":-123.1207375,"locationName":"Vancouver"}],"Vernon":[{"latitude":50.2670137,"longitude":-119.2720107,"locationName":"Vernon"}],"Victoria":[{"latitude":48.4284207,"longitude":-123.3656444,"locationName":"Victoria"}],"Williams_Lake":[{"latitude":52.1416736,"longitude":-122.1416885,"locationName":"Williams_Lake"}]},"Manitoba":{"Brandon":[{"latitude":49.848471,"longitude":-99.9500904,"locationName":"Brandon"}],"Carman":[{"latitude":49.5085651,"longitude":-98.0016988,"locationName":"Carman"}],"Gypsumville":[{"latitude":51.76932,"longitude":-98.6393929,"locationName":"Gypsumville"}],"Neepawa":[{"latitude":50.2277044,"longitude":-99.4667714,"locationName":"Neepawa"}],"Peguis":[{"latitude":51.31567,"longitude":-97.5601434,"locationName":"Peguis"}],"Portage_La_Prairie":[{"latitude":49.9723205,"longitude":-98.2903251,"locationName":"Portage_La_Prairie"}],"The_Pas":[{"latitude":53.8255265,"longitude":-101.2476129,"locationName":"The_Pas"}],"Thompson":[{"latitude":55.7449251,"longitude":-97.8508715,"locationName":"Thompson"}],"Virden":[{"latitude":49.8486678,"longitude":-100.9325285,"locationName":"Virden"}],"Winnipeg":[{"latitude":49.8997541,"longitude":-97.1374937,"locationName":"Winnipeg"}]},"Newfoundland":{"Baie_Verte":[{"latitude":49.9392654,"longitude":-56.1907286,"locationName":"Baie_Verte"}],"Corner_Brook":[{"latitude":48.9489967,"longitude":-57.9502726,"locationName":"Corner_Brook"}],"Goose_Bay":[{"latitude":53.3016826,"longitude":-60.3260842,"locationName":"Goose_Bay"}],"Grand_Falls":[{"latitude":48.9320529,"longitude":-55.6528053,"locationName":"Grand_Falls"}],"Hants_Harbour":[{"latitude":48.015794,"longitude":-53.2671909,"locationName":"Hants_Harbour"}],"Saint_Johns":[{"latitude":47.5605413,"longitude":-52.7128315,"locationName":"Saint_Johns"}],"Trout_River":[{"latitude":49.471061,"longitude":-58.126798,"locationName":"Trout_River"}]},"New_Brunswick":{"Bathurst":[{"latitude":47.6183507,"longitude":-65.6513358,"locationName":"Bathurst"}],"Campbellton":[{"latitude":48.007399,"longitude":-66.6722057,"locationName":"Campbellton"}],"Fredericton":[{"latitude":45.9635895,"longitude":-66.6431151,"locationName":"Fredericton"}],"Miramichi":[{"latitude":47.0295709,"longitude":-65.5059061,"locationName":"Miramichi"}],"Moncton":[{"latitude":46.0878165,"longitude":-64.7782313,"locationName":"Moncton"}],"Saint_John":[{"latitude":45.2733153,"longitude":-66.0633081,"locationName":"Saint_John"}]},"Nova_Scotia":{"Bridgewater":[{"latitude":44.3721167,"longitude":-64.5208798,"locationName":"Bridgewater"}],"Halifax":[{"latitude":44.6488625,"longitude":-63.5753196,"locationName":"Halifax"}],"Kentville":[{"latitude":45.0769115,"longitude":-64.4944735,"locationName":"Kentville"}],"Sherbrooke":[{"latitude":45.1402166,"longitude":-61.979911,"locationName":"Sherbrooke"}],"Sydney":[{"latitude":46.1367899,"longitude":-60.194224,"locationName":"Sydney"}],"Truro":[{"latitude":45.3657733,"longitude":-63.2869407,"locationName":"Truro"}]},"NW_Territories":{"Cambridge_Bay":[{"latitude":69.1168641,"longitude":-105.0596814,"locationName":"Cambridge_Bay"}],"Iqaluit":[{"latitude":63.7149378,"longitude":-68.4986394,"locationName":"Iqaluit"}],"Yellowknife":[{"latitude":62.459665,"longitude":-114.3821062,"locationName":"Yellowknife"}]},"Ontario":{"Aylmer":[{"latitude":42.7729381,"longitude":-80.9828842,"locationName":"Aylmer"}],"Bancroft":[{"latitude":45.0558574,"longitude":-77.8548814,"locationName":"Bancroft"}],"Barrie":[{"latitude":44.3893556,"longitude":-79.6903316,"locationName":"Barrie"}],"Bath":[{"latitude":44.1840483,"longitude":-76.771219,"locationName":"Bath"}],"Belleville":[{"latitude":44.1627589,"longitude":-77.3832315,"locationName":"Belleville"}],"Bowmanville":[{"latitude":43.9126042,"longitude":-78.688019,"locationName":"Bowmanville"}],"Brampton":[{"latitude":43.7315479,"longitude":-79.7624177,"locationName":"Brampton"}],"Burlington":[{"latitude":43.3255196,"longitude":-79.7990319,"locationName":"Burlington"}],"Cambridge":[{"latitude":43.3616211,"longitude":-80.3144276,"locationName":"Cambridge"}],"Chatham":[{"latitude":42.4048018,"longitude":-82.1910376,"locationName":"Chatham"}],"Cobourg":[{"latitude":43.9593373,"longitude":-78.1677363,"locationName":"Cobourg"}],"Cookstown":[{"latitude":44.1894183,"longitude":-79.7007401,"locationName":"Cookstown"}],"Cornwall":[{"latitude":45.0212762,"longitude":-74.730345,"locationName":"Cornwall"}],"Dryden":[{"latitude":49.7800938,"longitude":-92.8369592,"locationName":"Dryden"}],"Elliot_Lake":[{"latitude":46.386179,"longitude":-82.650941,"locationName":"Elliot_Lake"}],"Georgetown":[{"latitude":43.6502046,"longitude":-79.9036236,"locationName":"Georgetown"}],"Gore_Bay":[{"latitude":45.9114017,"longitude":-82.4597783,"locationName":"Gore_Bay"}],"Grand_Bend":[{"latitude":43.3130397,"longitude":-81.7562242,"locationName":"Grand_Bend"}],"Greater_Sudbury":[{"latitude":46.522099,"longitude":-80.9530353,"locationName":"Greater_Sudbury"}],"Guelph":[{"latitude":43.5448048,"longitude":-80.2481666,"locationName":"Guelph"}],"Hamilton":[{"latitude":43.2500208,"longitude":-79.8660914,"locationName":"Hamilton"}],"Hornepayne":[{"latitude":49.2122192,"longitude":-84.7714443,"locationName":"Hornepayne"}],"Huntsville":[{"latitude":45.3269323,"longitude":-79.2167539,"locationName":"Huntsville"}],"Ingleside":[{"latitude":44.9988842,"longitude":-74.9897993,"locationName":"Ingleside"}],"Kearney":[{"latitude":45.556352,"longitude":-79.2235611,"locationName":"Kearney"}],"Kenora":[{"latitude":49.7670416,"longitude":-94.4893924,"locationName":"Kenora"}],"Keswick":[{"latitude":44.2266889,"longitude":-79.453512,"locationName":"Keswick"}],"Kincardine":[{"latitude":44.1752954,"longitude":-81.6365715,"locationName":"Kincardine"}],"Kingston":[{"latitude":44.2311717,"longitude":-76.4859544,"locationName":"Kingston"}],"Kitchener":[{"latitude":43.450301,"longitude":-80.4831917,"locationName":"Kitchener"}],"La_Salle":[{"latitude":43.317431,"longitude":-79.826372,"locationName":"La_Salle"}],"Lindsay":[{"latitude":44.3565742,"longitude":-78.7407542,"locationName":"Lindsay"}],"London":[{"latitude":42.9869502,"longitude":-81.243177,"locationName":"London"}],"Markham":[{"latitude":43.8561002,"longitude":-79.3370188,"locationName":"Markham"}],"Milton":[{"latitude":43.5182991,"longitude":-79.8774042,"locationName":"Milton"}],"Mississauga":[{"latitude":43.5890452,"longitude":-79.6441198,"locationName":"Mississauga"}],"Moosonee":[{"latitude":51.273089,"longitude":-80.640049,"locationName":"Moosonee"}],"Newmarket":[{"latitude":44.059187,"longitude":-79.461256,"locationName":"Newmarket"}],"Niagara_Falls":[{"latitude":43.0895577,"longitude":-79.0849436,"locationName":"Niagara_Falls"}],"North_Bay":[{"latitude":46.3091152,"longitude":-79.4608204,"locationName":"North_Bay"}],"Oakville":[{"latitude":43.467517,"longitude":-79.6876659,"locationName":"Oakville"}],"Oshawa":[{"latitude":43.8970929,"longitude":-78.8657912,"locationName":"Oshawa"}],"Ottawa":[{"latitude":45.4215296,"longitude":-75.6971931,"locationName":"Ottawa"}],"Owen_Sound":[{"latitude":44.5690305,"longitude":-80.9405602,"locationName":"Owen_Sound"}],"Pembroke":[{"latitude":45.8266513,"longitude":-77.1108826,"locationName":"Pembroke"}],"Peterborough":[{"latitude":44.309058,"longitude":-78.319747,"locationName":"Peterborough"}],"Pickering":[{"latitude":43.8384117,"longitude":-79.0867579,"locationName":"Pickering"}],"Port_Sydney":[{"latitude":45.213191,"longitude":-79.275791,"locationName":"Port_Sydney"}],"Richmond_Hill":[{"latitude":43.8828401,"longitude":-79.4402808,"locationName":"Richmond_Hill"}],"Saint_Catharines":[{"latitude":43.1593745,"longitude":-79.2468626,"locationName":"Saint_Catharines"}],"Sarnia":[{"latitude":42.974536,"longitude":-82.4065901,"locationName":"Sarnia"}],"Sault_Sainte_Marie":[{"latitude":46.521858,"longitude":-84.3460896,"locationName":"Sault_Sainte_Marie"}],"Simcoe":[{"latitude":42.8372632,"longitude":-80.3040424,"locationName":"Simcoe"}],"Stratford":[{"latitude":43.3700007,"longitude":-80.9822286,"locationName":"Stratford"}],"Thornbury":[{"latitude":44.5617896,"longitude":-80.4529392,"locationName":"Thornbury"}],"Thunder_Bay":[{"latitude":48.3808951,"longitude":-89.2476823,"locationName":"Thunder_Bay"}],"Timmins":[{"latitude":48.4758208,"longitude":-81.3304953,"locationName":"Timmins"}],"Toronto":[{"latitude":43.653226,"longitude":-79.3831843,"locationName":"Toronto"}],"Vaughan":[{"latitude":43.8372079,"longitude":-79.508276,"locationName":"Vaughan"}],"Waterdown":[{"latitude":43.3247102,"longitude":-79.9030371,"locationName":"Waterdown"}],"Waterloo":[{"latitude":43.4642578,"longitude":-80.5204096,"locationName":"Waterloo"}],"Watford":[{"latitude":42.9555662,"longitude":-81.8799198,"locationName":"Watford"}],"Wawa":[{"latitude":47.992417,"longitude":-84.7710588,"locationName":"Wawa"}],"Whitby":[{"latitude":43.8975446,"longitude":-78.9429329,"locationName":"Whitby"}],"Windsor":[{"latitude":42.3149367,"longitude":-83.0363633,"locationName":"Windsor"}],"Woodstock":[{"latitude":43.1314966,"longitude":-80.7471651,"locationName":"Woodstock"}]},"Prince_Edward_Isl":{"Charlottetown":[{"latitude":46.23824,"longitude":-63.1310704,"locationName":"Charlottetown"}]},"Quebec":{"Alma":[{"latitude":48.5504607,"longitude":-71.6527704,"locationName":"Alma"}],"Amqui":[{"latitude":48.4646053,"longitude":-67.4311915,"locationName":"Amqui"}],"Baie_Comeau":[{"latitude":49.2212971,"longitude":-68.1503944,"locationName":"Baie_Comeau"}],"Beauharnois":[{"latitude":45.3150817,"longitude":-73.8779033,"locationName":"Beauharnois"}],"Boucherville":[{"latitude":45.5913698,"longitude":-73.4364097,"locationName":"Boucherville"}],"Cap_De_La_Madeleine":[{"latitude":46.3622521,"longitude":-72.5067098,"locationName":"Cap_De_La_Madeleine"}],"Chandler":[{"latitude":48.349494,"longitude":-64.6769768,"locationName":"Chandler"}],"Chibougamau":[{"latitude":49.9132295,"longitude":-74.3691986,"locationName":"Chibougamau"}],"Chicoutimi":[{"latitude":48.3516735,"longitude":-71.1385136,"locationName":"Chicoutimi"}],"Chisasibi":[{"latitude":53.7826457,"longitude":-78.8937214,"locationName":"Chisasibi"}],"Deauville":[{"latitude":45.991745,"longitude":-74.095086,"locationName":"Deauville"}],"Gaspe":[{"latitude":48.8316351,"longitude":-64.4869016,"locationName":"Gaspe"}],"Gatineau":[{"latitude":45.4765446,"longitude":-75.7012723,"locationName":"Gatineau"}],"Grand_Riviere":[{"latitude":48.3958679,"longitude":-64.4912636,"locationName":"Grand_Riviere"}],"Hull":[{"latitude":45.428731,"longitude":-75.7133658,"locationName":"Hull"}],"Huntingdon":[{"latitude":45.0891,"longitude":-74.1766,"locationName":"Huntingdon"}],"Laval":[{"latitude":45.6066487,"longitude":-73.712409,"locationName":"Laval"}],"La_Tuque":[{"latitude":47.4383405,"longitude":-72.7839311,"locationName":"La_Tuque"}],"Levis":[{"latitude":46.7382265,"longitude":-71.2464592,"locationName":"Levis"}],"Longeuil":[{"latitude":45.5369442,"longitude":-73.5107131,"locationName":"Longeuil"}],"Mirabel":[{"latitude":45.6518959,"longitude":-74.0901696,"locationName":"Mirabel"}],"Mistassini":[{"latitude":48.886394,"longitude":-72.215741,"locationName":"Mistassini"}],"Mobile_Servicing_System_Operations_Complex_Saint_Hubert":[{"latitude":45.498332,"longitude":-73.406507,"locationName":"Mobile_Servicing_System_Operations_Complex_Saint_Hubert"}],"Montreal":[{"latitude":45.5016889,"longitude":-73.567256,"locationName":"Montreal"}],"Quebec":[{"latitude":46.8138783,"longitude":-71.2079809,"locationName":"Quebec"}],"Rimouski":[{"latitude":48.4389803,"longitude":-68.5349704,"locationName":"Rimouski"}],"Saguenay":[{"latitude":48.4280529,"longitude":-71.0684923,"locationName":"Saguenay"}],"Saint_Constant":[{"latitude":45.379181,"longitude":-73.5644913,"locationName":"Saint_Constant"}],"Saint_Georges":[{"latitude":46.1229184,"longitude":-70.670352,"locationName":"Saint_Georges"}],"Saint_Jerome":[{"latitude":45.775357,"longitude":-74.004948,"locationName":"Saint_Jerome"}],"Saint_Jovite":[{"latitude":46.1214043,"longitude":-74.5944241,"locationName":"Saint_Jovite"}],"Saint_Polycarpe":[{"latitude":45.3028161,"longitude":-74.3032421,"locationName":"Saint_Polycarpe"}],"Sherbrooke":[{"latitude":45.4009928,"longitude":-71.8824288,"locationName":"Sherbrooke"}],"Sorel":[{"latitude":46.042825,"longitude":-73.112302,"locationName":"Sorel"}],"Terrebonne":[{"latitude":45.6929818,"longitude":-73.6331102,"locationName":"Terrebonne"}],"Thetford_Mines":[{"latitude":46.1028329,"longitude":-71.3055522,"locationName":"Thetford_Mines"}],"Trois-Rivieres":[{"latitude":46.3546803,"longitude":-72.5837866,"locationName":"Trois-Rivieres"}],"Val_d_Or":[{"latitude":48.0987106,"longitude":-77.7967676,"locationName":"Val_d_Or"}]},"Saskatchewan":{"Estevan":[{"latitude":49.1390842,"longitude":-102.9914807,"locationName":"Estevan"}],"Lucky_Lake":[{"latitude":50.9830819,"longitude":-107.1342746,"locationName":"Lucky_Lake"}],"Moose_Jaw":[{"latitude":50.3915811,"longitude":-105.5348562,"locationName":"Moose_Jaw"}],"North_Battleford":[{"latitude":52.7764752,"longitude":-108.2974555,"locationName":"North_Battleford"}],"Prince_Albert":[{"latitude":53.2033494,"longitude":-105.7530705,"locationName":"Prince_Albert"}],"Regina":[{"latitude":50.4452112,"longitude":-104.6188944,"locationName":"Regina"}],"Saskatoon":[{"latitude":52.1332144,"longitude":-106.6700458,"locationName":"Saskatoon"}],"Watrous":[{"latitude":51.6745142,"longitude":-105.4683377,"locationName":"Watrous"}],"Yorkton":[{"latitude":51.2174482,"longitude":-102.4739331,"locationName":"Yorkton"}]},"Yukon_Territory":{"Whitehorse":[{"latitude":60.7211871,"longitude":-135.0568449,"locationName":"Whitehorse"}]}},"Chile":{"None":{"Antofagasta":[{"latitude":-23.6509279,"longitude":-70.3975022,"locationName":"Antofagasta"}],"Arica":[{"latitude":-18.4782534,"longitude":-70.3125988,"locationName":"Arica"}],"Coihaique":[{"latitude":-45.5712254,"longitude":-72.068265,"locationName":"Coihaique"}],"Concepcion":[{"latitude":-36.8201352,"longitude":-73.0443904,"locationName":"Concepcion"}],"Copiapo":[{"latitude":-27.3665763,"longitude":-70.3321587,"locationName":"Copiapo"}],"Iquique":[{"latitude":-20.2307033,"longitude":-70.1356692,"locationName":"Iquique"}],"La_Serena":[{"latitude":-29.9026691,"longitude":-71.2519374,"locationName":"La_Serena"}],"Puerto_Montt":[{"latitude":-41.468917,"longitude":-72.9411364,"locationName":"Puerto_Montt"}],"Punta_Arenas":[{"latitude":-53.1638329,"longitude":-70.9170683,"locationName":"Punta_Arenas"}],"Rancagua":[{"latitude":-34.1701324,"longitude":-70.7406259,"locationName":"Rancagua"}],"Santiago":[{"latitude":-33.4488897,"longitude":-70.6692655,"locationName":"Santiago"}],"Talca":[{"latitude":-35.2575,"longitude":-72.2677778,"locationName":"Talca"}],"Temuco":[{"latitude":-38.7359018,"longitude":-72.5903739,"locationName":"Temuco"}],"Valparaiso":[{"latitude":-33.047238,"longitude":-71.6126885,"locationName":"Valparaiso"}]}},"China":{"None":{"Beijing":[{"latitude":39.9431802,"longitude":116.3695425,"locationName":"Beijing"}],"Changchun":[{"latitude":43.817072,"longitude":125.323544,"locationName":"Changchun"}],"Changsha":[{"latitude":28.228209,"longitude":112.938814,"locationName":"Changsha"}],"Chengdu":[{"latitude":30.572816,"longitude":104.066801,"locationName":"Chengdu"}],"Chongqing":[{"latitude":29.56301,"longitude":106.551556,"locationName":"Chongqing"}],"Fuzhou":[{"latitude":26.074508,"longitude":119.296494,"locationName":"Fuzhou"}],"Guangzhou":[{"latitude":23.12911,"longitude":113.264385,"locationName":"Guangzhou"}],"Guiyang":[{"latitude":26.647661,"longitude":106.630154,"locationName":"Guiyang"}],"Haikou":[{"latitude":20.044002,"longitude":110.198293,"locationName":"Haikou"}],"Hangzhou":[{"latitude":30.274085,"longitude":120.15507,"locationName":"Hangzhou"}],"Harbin":[{"latitude":45.803775,"longitude":126.534967,"locationName":"Harbin"}],"Hefei":[{"latitude":31.820592,"longitude":117.227219,"locationName":"Hefei"}],"Hohhot":[{"latitude":40.842585,"longitude":111.749181,"locationName":"Hohhot"}],"Hong_Kong":[{"latitude":22.3799639,"longitude":114.2676665,"locationName":"Hong_Kong"}],"Jinan":[{"latitude":36.651216,"longitude":117.12,"locationName":"Jinan"}],"Kunming":[{"latitude":24.880095,"longitude":102.832892,"locationName":"Kunming"}],"Lanzhou":[{"latitude":36.061089,"longitude":103.834304,"locationName":"Lanzhou"}],"Lhasa":[{"latitude":29.652491,"longitude":91.17211,"locationName":"Lhasa"}],"Macau":[{"latitude":22.2047465,"longitude":113.5552031,"locationName":"Macau"}],"Nanchang":[{"latitude":28.682892,"longitude":115.858198,"locationName":"Nanchang"}],"Nanjing":[{"latitude":32.060255,"longitude":118.796877,"locationName":"Nanjing"}],"Nanning":[{"latitude":22.817002,"longitude":108.366543,"locationName":"Nanning"}],"Shanghai":[{"latitude":31.230416,"longitude":121.473701,"locationName":"Shanghai"}],"Shenyang":[{"latitude":41.805699,"longitude":123.431472,"locationName":"Shenyang"}],"Shijiazhuang":[{"latitude":38.042307,"longitude":114.51486,"locationName":"Shijiazhuang"}],"Taiyuan":[{"latitude":37.87059,"longitude":112.548879,"locationName":"Taiyuan"}],"Tianjin":[{"latitude":39.1024168,"longitude":117.2829735,"locationName":"Tianjin"}],"Urumqi":[{"latitude":43.825592,"longitude":87.616848,"locationName":"Urumqi"}],"Wuhan":[{"latitude":30.593099,"longitude":114.305393,"locationName":"Wuhan"}],"Xian":[{"latitude":34.341575,"longitude":108.93977,"locationName":"Xian"}],"Xining":[{"latitude":36.617134,"longitude":101.778224,"locationName":"Xining"}],"Yinchuan":[{"latitude":38.487194,"longitude":106.230909,"locationName":"Yinchuan"}],"Zhengzhou":[{"latitude":34.746611,"longitude":113.625328,"locationName":"Zhengzhou"}]}},"Colombia":{"None":{"Armenia":[{"latitude":4.535092,"longitude":-75.673156,"locationName":"Armenia"}],"Barranquilla":[{"latitude":11.0041072,"longitude":-74.8069813,"locationName":"Barranquilla"}],"Bogota":[{"latitude":4.7109886,"longitude":-74.072092,"locationName":"Bogota"}],"Bucaramanga":[{"latitude":7.119349,"longitude":-73.1227416,"locationName":"Bucaramanga"}],"Cali":[{"latitude":3.4516467,"longitude":-76.5319854,"locationName":"Cali"}],"Cartagena":[{"latitude":10.3910485,"longitude":-75.4794257,"locationName":"Cartagena"}],"Cartago":[{"latitude":4.7472212,"longitude":-75.9116289,"locationName":"Cartago"}],"Manizales":[{"latitude":5.070275,"longitude":-75.5138166,"locationName":"Manizales"}],"Medellin":[{"latitude":6.2530408,"longitude":-75.5645737,"locationName":"Medellin"}],"Monteria":[{"latitude":8.750983,"longitude":-75.8785348,"locationName":"Monteria"}],"Pasto":[{"latitude":1.2058837,"longitude":-77.285787,"locationName":"Pasto"}],"Pereira":[{"latitude":4.8087174,"longitude":-75.690601,"locationName":"Pereira"}],"Popayan":[{"latitude":2.4448143,"longitude":-76.6147395,"locationName":"Popayan"}],"Santa_Marta":[{"latitude":11.2403547,"longitude":-74.2110227,"locationName":"Santa_Marta"}],"Tulua":[{"latitude":4.089869,"longitude":-76.1914991,"locationName":"Tulua"}]}},"Comoros":{"None":{"Mamoutzou":[{"latitude":-12.7809488,"longitude":45.227872,"locationName":"Mamoutzou"}],"Moroni":[{"latitude":-11.7172157,"longitude":43.2473146,"locationName":"Moroni"}]}},"Costa_Rica":{"None":{"Cartago":[{"latitude":9.7539596,"longitude":-83.6773928,"locationName":"Cartago"}],"Liberia":[{"latitude":10.6345964,"longitude":-85.4406747,"locationName":"Liberia"}],"San_Jose":[{"latitude":9.928069,"longitude":-84.090725,"locationName":"San_Jose"}]}},"Croatia":{"None":{"Pozega":[{"latitude":45.3314763,"longitude":17.6744748,"locationName":"Pozega"}],"Pula":[{"latitude":44.8666232,"longitude":13.8495788,"locationName":"Pula"}],"Split":[{"latitude":43.5081323,"longitude":16.4401935,"locationName":"Split"}],"Vinkovci":[{"latitude":45.2879058,"longitude":18.8056781,"locationName":"Vinkovci"}],"Zagreb":[{"latitude":45.8150108,"longitude":15.981919,"locationName":"Zagreb"}]}},"Cuba":{"None":{"Cardenas":[{"latitude":23.036551,"longitude":-81.213326,"locationName":"Cardenas"}],"Guantanamo_Bay":[{"latitude":20.011737,"longitude":-75.1216254,"locationName":"Guantanamo_Bay"}],"Havana":[{"latitude":23.1135925,"longitude":-82.3665956,"locationName":"Havana"}],"Matanzas":[{"latitude":22.5767123,"longitude":-81.3399414,"locationName":"Matanzas"}],"Pinar_del_Rio":[{"latitude":22.4133651,"longitude":-83.6880257,"locationName":"Pinar_del_Rio"}],"Santa_Clara":[{"latitude":22.424398,"longitude":-79.941655,"locationName":"Santa_Clara"}]}},"Curacao":{"None":{"Willemstad":[{"latitude":12.1224221,"longitude":-68.8824233,"locationName":"Willemstad"}]}},"Cyprus":{"None":{"Nicosia":[{"latitude":35.1855659,"longitude":33.3822764,"locationName":"Nicosia"}]}},"Czech_Republic":{"None":{"Brno":[{"latitude":49.1950602,"longitude":16.6068371,"locationName":"Brno"}],"Havirov":[{"latitude":49.7803923,"longitude":18.4306254,"locationName":"Havirov"}],"Jablonec":[{"latitude":50.4531546,"longitude":13.8069404,"locationName":"Jablonec"}],"Ostrava":[{"latitude":49.8209226,"longitude":18.2625243,"locationName":"Ostrava"}],"Prague":[{"latitude":50.0755381,"longitude":14.4378005,"locationName":"Prague"}],"Roznov":[{"latitude":50.3380465,"longitude":15.8612904,"locationName":"Roznov"}],"Susice":[{"latitude":49.2316758,"longitude":13.5204093,"locationName":"Susice"}],"Turnov":[{"latitude":50.587285,"longitude":15.1568091,"locationName":"Turnov"}],"Upice":[{"latitude":50.5123719,"longitude":16.0160733,"locationName":"Upice"}],"Usti_nad_Labem":[{"latitude":50.6611164,"longitude":14.0531456,"locationName":"Usti_nad_Labem"}],"Valaske_Mezirici":[{"latitude":49.4718042,"longitude":17.9711369,"locationName":"Valaske_Mezirici"}],"Veseli_nad_Moravou":[{"latitude":48.9523773,"longitude":17.3809152,"locationName":"Veseli_nad_Moravou"}],"Vysokov":[{"latitude":50.4037682,"longitude":16.1166422,"locationName":"Vysokov"}],"Zruc_nad_Sazavou":[{"latitude":49.740105,"longitude":15.1060638,"locationName":"Zruc_nad_Sazavou"}]}},"Denmark":{"None":{"Aalborg":[{"latitude":57.0488195,"longitude":9.921747,"locationName":"Aalborg"}],"Aarhus":[{"latitude":56.162939,"longitude":10.203921,"locationName":"Aarhus"}],"Asnaes":[{"latitude":55.813912,"longitude":11.501941,"locationName":"Asnaes"}],"Birkerod":[{"latitude":55.844295,"longitude":12.422112,"locationName":"Birkerod"}],"Copenhagen":[{"latitude":55.6760968,"longitude":12.5683371,"locationName":"Copenhagen"}],"Esbjerg":[{"latitude":55.476466,"longitude":8.459405,"locationName":"Esbjerg"}],"Frederiksberg":[{"latitude":55.677069,"longitude":12.513321,"locationName":"Frederiksberg"}],"Hornbaek":[{"latitude":56.084962,"longitude":12.458537,"locationName":"Hornbaek"}],"Horsholm":[{"latitude":55.883514,"longitude":12.504924,"locationName":"Horsholm"}],"Kolding":[{"latitude":55.495973,"longitude":9.4730519,"locationName":"Kolding"}],"Nuuk":[{"latitude":64.1814099,"longitude":-51.694138,"locationName":"Nuuk"}],"Odense":[{"latitude":55.403756,"longitude":10.40237,"locationName":"Odense"}],"Rosklide":[{"latitude":55.64191,"longitude":12.087845,"locationName":"Rosklide"}],"Skive":[{"latitude":56.5651232,"longitude":9.0309083,"locationName":"Skive"}],"Sonderborg":[{"latitude":54.913811,"longitude":9.792178,"locationName":"Sonderborg"}],"Struer":[{"latitude":56.48493,"longitude":8.589933,"locationName":"Struer"}],"Vejle":[{"latitude":55.7113112,"longitude":9.5363541,"locationName":"Vejle"}]}},"Dominica":{"None":{"Roseau":[{"latitude":15.3091676,"longitude":-61.3793554,"locationName":"Roseau"}]}},"Dominican_Republic":{"None":{"Santo_Domingo":[{"latitude":18.4860575,"longitude":-69.9312117,"locationName":"Santo_Domingo"}]}},"Ecuador":{"None":{"Guayaquil":[{"latitude":-2.1709979,"longitude":-79.9223592,"locationName":"Guayaquil"}],"Quito":[{"latitude":-0.1806532,"longitude":-78.4678382,"locationName":"Quito"}]}},"Egypt":{"None":{"Alexandria":[{"latitude":30.9213539,"longitude":30.5748649,"locationName":"Alexandria"}],"Aswan":[{"latitude":24.088938,"longitude":32.8998293,"locationName":"Aswan"}],"Cairo":[{"latitude":30.0444196,"longitude":31.2357116,"locationName":"Cairo"}],"Great_Pyramid_of_Giza":[{"latitude":29.9792345,"longitude":31.1342019,"locationName":"Great_Pyramid_of_Giza"}]}},"El_Salvador":{"None":{"Cojutepeque":[{"latitude":13.7208503,"longitude":-88.9365976,"locationName":"Cojutepeque"}],"San_Miguel":[{"latitude":13.4451041,"longitude":-88.2461183,"locationName":"San_Miguel"}],"San_Salvador":[{"latitude":13.6929403,"longitude":-89.2181911,"locationName":"San_Salvador"}]}},"Estonia":{"None":{"Tallinn":[{"latitude":59.4369608,"longitude":24.7535746,"locationName":"Tallinn"}],"Tartu":[{"latitude":58.3776252,"longitude":26.7290063,"locationName":"Tartu"}]}},"Ethiopia":{"None":{"Addis_Ababa":[{"latitude":8.9806034,"longitude":38.7577605,"locationName":"Addis_Ababa"}]}},"Falkland_Islands":{"None":{"Stanley":[{"latitude":-51.6977129,"longitude":-57.8516627,"locationName":"Stanley"}]}},"Fiji":{"None":{"Suva":[{"latitude":-18.1248086,"longitude":178.4500789,"locationName":"Suva"}]}},"Finland":{"None":{"Hameenlinna":[{"latitude":60.9928787,"longitude":24.4590243,"locationName":"Hameenlinna"}],"Helsinki":[{"latitude":60.1698557,"longitude":24.938379,"locationName":"Helsinki"}],"Joensuu":[{"latitude":62.6010155,"longitude":29.7635719,"locationName":"Joensuu"}],"Juva":[{"latitude":61.8947473,"longitude":27.8617615,"locationName":"Juva"}],"Jyvaskyla":[{"latitude":62.2426034,"longitude":25.7472567,"locationName":"Jyvaskyla"}],"Kotka":[{"latitude":60.4665666,"longitude":26.9459403,"locationName":"Kotka"}],"Kouvola":[{"latitude":60.8678835,"longitude":26.7041601,"locationName":"Kouvola"}],"Kuopio":[{"latitude":62.89797,"longitude":27.6781725,"locationName":"Kuopio"}],"Lahti":[{"latitude":60.9826749,"longitude":25.6612096,"locationName":"Lahti"}],"Lappeenranta":[{"latitude":61.0549929,"longitude":28.1896628,"locationName":"Lappeenranta"}],"Mikkeli":[{"latitude":61.6887271,"longitude":27.2721457,"locationName":"Mikkeli"}],"Oulu":[{"latitude":65.0120888,"longitude":25.4650773,"locationName":"Oulu"}],"Pori":[{"latitude":61.4851393,"longitude":21.7974178,"locationName":"Pori"}],"Tampere":[{"latitude":61.4977524,"longitude":23.7609535,"locationName":"Tampere"}],"Turku":[{"latitude":60.4518126,"longitude":22.2666303,"locationName":"Turku"}]}},"France":{"None":{"Aix-en-Provence":[{"latitude":43.529742,"longitude":5.447427,"locationName":"Aix-en-Provence"}],"Ajaccio":[{"latitude":41.919229,"longitude":8.738635,"locationName":"Ajaccio"}],"Amiens":[{"latitude":49.894067,"longitude":2.295753,"locationName":"Amiens"}],"Angers":[{"latitude":47.478419,"longitude":-0.563166,"locationName":"Angers"}],"Argenteuil":[{"latitude":48.9472096,"longitude":2.2466847,"locationName":"Argenteuil"}],"Bastia":[{"latitude":42.697283,"longitude":9.450881,"locationName":"Bastia"}],"Besancon":[{"latitude":47.237829,"longitude":6.0240539,"locationName":"Besancon"}],"Biarritz":[{"latitude":43.4831519,"longitude":-1.558626,"locationName":"Biarritz"}],"Bordeaux":[{"latitude":44.8678133,"longitude":-0.6036913,"locationName":"Bordeaux"}],"Boulogne-Billancourt":[{"latitude":48.8396952,"longitude":2.2399123,"locationName":"Boulogne-Billancourt"}],"Bourges":[{"latitude":47.081012,"longitude":2.398782,"locationName":"Bourges"}],"Brest":[{"latitude":48.390394,"longitude":-4.486076,"locationName":"Brest"}],"Caen":[{"latitude":49.182863,"longitude":-0.370679,"locationName":"Caen"}],"Cahors":[{"latitude":44.4475229,"longitude":1.441989,"locationName":"Cahors"}],"Cannes":[{"latitude":43.552847,"longitude":7.017369,"locationName":"Cannes"}],"Clermont-Ferrand":[{"latitude":45.777222,"longitude":3.087025,"locationName":"Clermont-Ferrand"}],"Colmar":[{"latitude":48.0793589,"longitude":7.358512,"locationName":"Colmar"}],"Corbeil-Essonnes":[{"latitude":48.5919201,"longitude":2.45965,"locationName":"Corbeil-Essonnes"}],"Dijon":[{"latitude":47.322047,"longitude":5.04148,"locationName":"Dijon"}],"Fecamp":[{"latitude":49.755601,"longitude":0.380774,"locationName":"Fecamp"}],"Grenoble":[{"latitude":45.188529,"longitude":5.724524,"locationName":"Grenoble"}],"Homecourt":[{"latitude":49.225282,"longitude":5.99159,"locationName":"Homecourt"}],"Laval":[{"latitude":48.0785146,"longitude":-0.7669906,"locationName":"Laval"}],"La_Rochelle":[{"latitude":46.160329,"longitude":-1.151139,"locationName":"La_Rochelle"}],"Les_Abymes":[{"latitude":47.0201909,"longitude":1.694777,"locationName":"Les_Abymes"}],"Le_Havre":[{"latitude":49.49437,"longitude":0.107929,"locationName":"Le_Havre"}],"Le_Mans":[{"latitude":48.00611,"longitude":0.199556,"locationName":"Le_Mans"}],"Lille":[{"latitude":50.62925,"longitude":3.057256,"locationName":"Lille"}],"Limoges":[{"latitude":45.833619,"longitude":1.261105,"locationName":"Limoges"}],"Lyon":[{"latitude":45.764043,"longitude":4.835659,"locationName":"Lyon"}],"Mantes_la_Jolie":[{"latitude":48.989323,"longitude":1.714958,"locationName":"Mantes_la_Jolie"}],"Marseille":[{"latitude":43.296482,"longitude":5.36978,"locationName":"Marseille"}],"Meribel":[{"latitude":45.397528,"longitude":6.56436,"locationName":"Meribel"}],"Metz":[{"latitude":49.1193089,"longitude":6.1757156,"locationName":"Metz"}],"Montpellier":[{"latitude":43.610769,"longitude":3.876716,"locationName":"Montpellier"}],"Montreuil":[{"latitude":48.863812,"longitude":2.448451,"locationName":"Montreuil"}],"Mulhouse":[{"latitude":47.750839,"longitude":7.335888,"locationName":"Mulhouse"}],"Nancy":[{"latitude":48.692054,"longitude":6.184417,"locationName":"Nancy"}],"Nantes":[{"latitude":47.218371,"longitude":-1.553621,"locationName":"Nantes"}],"Nevers":[{"latitude":46.990896,"longitude":3.162845,"locationName":"Nevers"}],"Nice":[{"latitude":43.7101728,"longitude":7.2619532,"locationName":"Nice"}],"Nimes":[{"latitude":43.836699,"longitude":4.360054,"locationName":"Nimes"}],"Oinville_sur_Montcient":[{"latitude":49.029116,"longitude":1.852215,"locationName":"Oinville_sur_Montcient"}],"Orleans":[{"latitude":47.902964,"longitude":1.909251,"locationName":"Orleans"}],"Paris":[{"latitude":48.856614,"longitude":2.352222,"locationName":"Paris"}],"Perpignan":[{"latitude":42.711622,"longitude":2.853978,"locationName":"Perpignan"}],"Pithiviers":[{"latitude":48.173423,"longitude":2.255849,"locationName":"Pithiviers"}],"Poitiers":[{"latitude":46.580224,"longitude":0.340375,"locationName":"Poitiers"}],"Reims":[{"latitude":49.258329,"longitude":4.031696,"locationName":"Reims"}],"Rennes":[{"latitude":48.0782017,"longitude":-1.7195832,"locationName":"Rennes"}],"Riom":[{"latitude":45.8939949,"longitude":3.114932,"locationName":"Riom"}],"Roubaix":[{"latitude":50.6927049,"longitude":3.177847,"locationName":"Roubaix"}],"Rouen":[{"latitude":49.443232,"longitude":1.099971,"locationName":"Rouen"}],"Royan":[{"latitude":45.623027,"longitude":-1.043182,"locationName":"Royan"}],"Saint_Denis_Reunion":[{"latitude":-20.8747731,"longitude":55.4474071,"locationName":"Saint_Denis_Reunion"}],"Saint_Etienne":[{"latitude":45.439695,"longitude":4.3871779,"locationName":"Saint_Etienne"}],"Saint_Paul_Reunion":[{"latitude":-20.9361022,"longitude":55.3317422,"locationName":"Saint_Paul_Reunion"}],"Strasbourg":[{"latitude":48.5734053,"longitude":7.7521113,"locationName":"Strasbourg"}],"Toulon":[{"latitude":43.124228,"longitude":5.928,"locationName":"Toulon"}],"Toulouse":[{"latitude":43.604652,"longitude":1.444209,"locationName":"Toulouse"}],"Tours":[{"latitude":47.394144,"longitude":0.68484,"locationName":"Tours"}],"Valognes":[{"latitude":49.509594,"longitude":-1.469216,"locationName":"Valognes"}],"Vernon":[{"latitude":49.091958,"longitude":1.488107,"locationName":"Vernon"}],"Villeneuve_d_Ascq":[{"latitude":50.6232523,"longitude":3.1442651,"locationName":"Villeneuve_d_Ascq"}],"Villeurbanne":[{"latitude":45.771944,"longitude":4.8901709,"locationName":"Villeurbanne"}]}},"French_Guiana":{"None":{"Cayenne":[{"latitude":4.92242,"longitude":-52.3134531,"locationName":"Cayenne"}],"Kourou":[{"latitude":5.1611312,"longitude":-52.6493342,"locationName":"Kourou"}]}},"Gabon":{"None":{"Libreville":[{"latitude":0.4161976,"longitude":9.4672676,"locationName":"Libreville"}],"Port_Gentil":[{"latitude":-0.7351026,"longitude":8.7591311,"locationName":"Port_Gentil"}]}},"Gambia":{"None":{"Banjul":[{"latitude":13.4548761,"longitude":-16.5790323,"locationName":"Banjul"}]}},"Georgia":{"None":{"Tbilisi":[{"latitude":41.7151377,"longitude":44.827096,"locationName":"Tbilisi"}]}},"Germany":{"None":{"Aachen":[{"latitude":50.7753455,"longitude":6.0838868,"locationName":"Aachen"}],"Achim":[{"latitude":53.0092,"longitude":9.0510401,"locationName":"Achim"}],"Amberg":[{"latitude":49.4403198,"longitude":11.8633445,"locationName":"Amberg"}],"Augsburg":[{"latitude":48.3705449,"longitude":10.89779,"locationName":"Augsburg"}],"Bad_Neustadt":[{"latitude":50.3230337,"longitude":10.2028107,"locationName":"Bad_Neustadt"}],"Balve":[{"latitude":51.3309319,"longitude":7.8646236,"locationName":"Balve"}],"Bamberg":[{"latitude":49.8988135,"longitude":10.9027636,"locationName":"Bamberg"}],"Bayreuth":[{"latitude":49.9456399,"longitude":11.5713346,"locationName":"Bayreuth"}],"Bergisch_Gladbach":[{"latitude":50.9923091,"longitude":7.1286213,"locationName":"Bergisch_Gladbach"}],"Berlin":[{"latitude":52.5200066,"longitude":13.404954,"locationName":"Berlin"}],"Bielefeld":[{"latitude":52.0302285,"longitude":8.5324708,"locationName":"Bielefeld"}],"Birkenfeld":[{"latitude":49.6512438,"longitude":7.1631611,"locationName":"Birkenfeld"}],"Bochum":[{"latitude":51.4818445,"longitude":7.2162363,"locationName":"Bochum"}],"Bonn":[{"latitude":50.73743,"longitude":7.0982068,"locationName":"Bonn"}],"Bottrop":[{"latitude":51.529086,"longitude":6.9446888,"locationName":"Bottrop"}],"Braunschweig":[{"latitude":52.2688736,"longitude":10.5267696,"locationName":"Braunschweig"}],"Bremen":[{"latitude":53.0792962,"longitude":8.8016937,"locationName":"Bremen"}],"Bremerhaven":[{"latitude":53.5395845,"longitude":8.5809424,"locationName":"Bremerhaven"}],"Buxtehude":[{"latitude":53.4674857,"longitude":9.6915741,"locationName":"Buxtehude"}],"Celle":[{"latitude":52.6175963,"longitude":10.0628515,"locationName":"Celle"}],"Chemnitz":[{"latitude":50.827845,"longitude":12.9213697,"locationName":"Chemnitz"}],"Cologne":[{"latitude":50.937531,"longitude":6.9602786,"locationName":"Cologne"}],"Columbus_Control_Center_Oberpfaffenhofen":[{"latitude":48.080821,"longitude":11.286046,"locationName":"Columbus_Control_Center_Oberpfaffenhofen"}],"Cottbus":[{"latitude":51.7563108,"longitude":14.3328679,"locationName":"Cottbus"}],"Dahlenburg":[{"latitude":53.1878413,"longitude":10.7397201,"locationName":"Dahlenburg"}],"Darmstadt":[{"latitude":49.8728253,"longitude":8.6511929,"locationName":"Darmstadt"}],"Deggendorf":[{"latitude":48.8408515,"longitude":12.9574787,"locationName":"Deggendorf"}],"Dortmund":[{"latitude":51.5135872,"longitude":7.4652981,"locationName":"Dortmund"}],"Dresden":[{"latitude":51.0504088,"longitude":13.7372621,"locationName":"Dresden"}],"Duisburg":[{"latitude":51.4344079,"longitude":6.7623293,"locationName":"Duisburg"}],"Dusseldorf":[{"latitude":51.2277411,"longitude":6.7734556,"locationName":"Dusseldorf"}],"Eltville":[{"latitude":50.0289744,"longitude":8.119173,"locationName":"Eltville"}],"Emlichheim":[{"latitude":52.6146118,"longitude":6.8535832,"locationName":"Emlichheim"}],"Erfurt":[{"latitude":50.9847679,"longitude":11.0298799,"locationName":"Erfurt"}],"Erkelenz":[{"latitude":51.0784539,"longitude":6.315907,"locationName":"Erkelenz"}],"Erlangen":[{"latitude":49.5896744,"longitude":11.0119611,"locationName":"Erlangen"}],"Essen":[{"latitude":51.4556432,"longitude":7.0115552,"locationName":"Essen"}],"Flensburg":[{"latitude":54.7937431,"longitude":9.4469964,"locationName":"Flensburg"}],"Frankfurt_am_Main":[{"latitude":50.1109221,"longitude":8.6821267,"locationName":"Frankfurt_am_Main"}],"Frankfurt_an_der_Oder":[{"latitude":52.3472237,"longitude":14.5505673,"locationName":"Frankfurt_an_der_Oder"}],"Freiburg_im_Breisgau":[{"latitude":47.9990077,"longitude":7.8421043,"locationName":"Freiburg_im_Breisgau"}],"Furth":[{"latitude":49.4771169,"longitude":10.988667,"locationName":"Furth"}],"Gelsenkirchen":[{"latitude":51.517744,"longitude":7.0857172,"locationName":"Gelsenkirchen"}],"Giebelstadt":[{"latitude":49.6534732,"longitude":9.9452462,"locationName":"Giebelstadt"}],"Giessen":[{"latitude":50.5840512,"longitude":8.6784031,"locationName":"Giessen"}],"Gorlitz":[{"latitude":51.1506269,"longitude":14.968707,"locationName":"Gorlitz"}],"Gottingen":[{"latitude":51.5412804,"longitude":9.9158035,"locationName":"Gottingen"}],"Greifswald":[{"latitude":54.0865463,"longitude":13.3923414,"locationName":"Greifswald"}],"Gundelfingen":[{"latitude":48.0424069,"longitude":7.8669466,"locationName":"Gundelfingen"}],"Gutersloh":[{"latitude":51.9032375,"longitude":8.3857535,"locationName":"Gutersloh"}],"Hagen":[{"latitude":51.3670777,"longitude":7.4632841,"locationName":"Hagen"}],"Halle-Saale":[{"latitude":51.4969802,"longitude":11.9688029,"locationName":"Halle-Saale"}],"Hamburg":[{"latitude":53.5510846,"longitude":9.9936818,"locationName":"Hamburg"}],"Hamm":[{"latitude":51.6738583,"longitude":7.8159816,"locationName":"Hamm"}],"Hanau":[{"latitude":50.1264123,"longitude":8.9283105,"locationName":"Hanau"}],"Hannover":[{"latitude":52.3758916,"longitude":9.7320104,"locationName":"Hannover"}],"Heidelberg":[{"latitude":49.3987524,"longitude":8.6724335,"locationName":"Heidelberg"}],"Heilbronn":[{"latitude":49.1426929,"longitude":9.210879,"locationName":"Heilbronn"}],"Helmstedt":[{"latitude":52.228966,"longitude":11.009544,"locationName":"Helmstedt"}],"Heppenheim":[{"latitude":49.6430169,"longitude":8.6675419,"locationName":"Heppenheim"}],"Herne":[{"latitude":51.5368948,"longitude":7.2009147,"locationName":"Herne"}],"Herrenberg":[{"latitude":48.5950369,"longitude":8.8671577,"locationName":"Herrenberg"}],"Herten":[{"latitude":51.6020534,"longitude":7.1389575,"locationName":"Herten"}],"Hildesheim":[{"latitude":52.154778,"longitude":9.9579652,"locationName":"Hildesheim"}],"Hof":[{"latitude":50.3135391,"longitude":11.9127814,"locationName":"Hof"}],"Holzkirchen":[{"latitude":47.8810573,"longitude":11.6997577,"locationName":"Holzkirchen"}],"Idar-Oberstein":[{"latitude":49.714528,"longitude":7.3071512,"locationName":"Idar-Oberstein"}],"Ingolstadt":[{"latitude":48.7665351,"longitude":11.4257541,"locationName":"Ingolstadt"}],"Isen":[{"latitude":48.2056508,"longitude":12.0535383,"locationName":"Isen"}],"Jena":[{"latitude":50.927054,"longitude":11.5892372,"locationName":"Jena"}],"Kaiserslautern":[{"latitude":49.4400657,"longitude":7.7491265,"locationName":"Kaiserslautern"}],"Karlsruhe":[{"latitude":49.0068901,"longitude":8.4036527,"locationName":"Karlsruhe"}],"Kassel":[{"latitude":51.3127114,"longitude":9.4797461,"locationName":"Kassel"}],"Kempen":[{"latitude":51.3649942,"longitude":6.4205309,"locationName":"Kempen"}],"Kiel":[{"latitude":54.3232927,"longitude":10.1227652,"locationName":"Kiel"}],"Koblenz":[{"latitude":50.3569429,"longitude":7.5889959,"locationName":"Koblenz"}],"Konstanz":[{"latitude":47.6779496,"longitude":9.1732384,"locationName":"Konstanz"}],"Krefeld":[{"latitude":51.3387609,"longitude":6.5853417,"locationName":"Krefeld"}],"Kropp":[{"latitude":54.411313,"longitude":9.5090762,"locationName":"Kropp"}],"Landau":[{"latitude":49.198886,"longitude":8.1185622,"locationName":"Landau"}],"Landshut":[{"latitude":48.5441917,"longitude":12.1468532,"locationName":"Landshut"}],"Leichlingen":[{"latitude":51.102509,"longitude":7.0096126,"locationName":"Leichlingen"}],"Leipzig":[{"latitude":51.3396955,"longitude":12.3730747,"locationName":"Leipzig"}],"Leonberg":[{"latitude":48.7960447,"longitude":9.0095706,"locationName":"Leonberg"}],"Leverkusen":[{"latitude":51.0459248,"longitude":7.0192196,"locationName":"Leverkusen"}],"Lubeck":[{"latitude":53.8654673,"longitude":10.6865593,"locationName":"Lubeck"}],"Ludenscheid":[{"latitude":51.2191038,"longitude":7.63126,"locationName":"Ludenscheid"}],"Ludwigshafen":[{"latitude":49.47741,"longitude":8.44518,"locationName":"Ludwigshafen"}],"Luneburg":[{"latitude":53.2464214,"longitude":10.4115179,"locationName":"Luneburg"}],"Magdeburg":[{"latitude":52.1205333,"longitude":11.6276237,"locationName":"Magdeburg"}],"Mainz":[{"latitude":49.9928617,"longitude":8.2472526,"locationName":"Mainz"}],"Mannheim":[{"latitude":49.4874592,"longitude":8.4660395,"locationName":"Mannheim"}],"Marburg":[{"latitude":50.8021728,"longitude":8.7667933,"locationName":"Marburg"}],"Meppen":[{"latitude":52.6953479,"longitude":7.2994007,"locationName":"Meppen"}],"Meuselwitz":[{"latitude":51.0427059,"longitude":12.3024728,"locationName":"Meuselwitz"}],"Minden":[{"latitude":52.2964919,"longitude":8.8949206,"locationName":"Minden"}],"Moers":[{"latitude":51.4516041,"longitude":6.6408148,"locationName":"Moers"}],"Monchengladbach":[{"latitude":51.1804572,"longitude":6.4428041,"locationName":"Monchengladbach"}],"Mulheim":[{"latitude":51.4185682,"longitude":6.8845226,"locationName":"Mulheim"}],"Munchen":[{"latitude":48.1351253,"longitude":11.5819806,"locationName":"Munchen"}],"Munster":[{"latitude":51.7697275,"longitude":7.6972329,"locationName":"Munster"}],"Naumburg":[{"latitude":51.1520283,"longitude":11.8142454,"locationName":"Naumburg"}],"Netphen":[{"latitude":50.9150588,"longitude":8.1072664,"locationName":"Netphen"}],"Neuss":[{"latitude":51.2041968,"longitude":6.6879511,"locationName":"Neuss"}],"Neustadt":[{"latitude":49.3501864,"longitude":8.1486886,"locationName":"Neustadt"}],"Northeim":[{"latitude":51.7001785,"longitude":9.9959057,"locationName":"Northeim"}],"Nuremberg":[{"latitude":49.45203,"longitude":11.07675,"locationName":"Nuremberg"}],"Nurtingen":[{"latitude":48.624421,"longitude":9.3469069,"locationName":"Nurtingen"}],"Offenbach":[{"latitude":50.0956362,"longitude":8.7760843,"locationName":"Offenbach"}],"Oldenburg":[{"latitude":53.1434501,"longitude":8.2145521,"locationName":"Oldenburg"}],"Osnabruck":[{"latitude":52.2799112,"longitude":8.0471788,"locationName":"Osnabruck"}],"Osterhofen":[{"latitude":48.7019417,"longitude":13.0178291,"locationName":"Osterhofen"}],"Paderborn":[{"latitude":51.7189205,"longitude":8.7575093,"locationName":"Paderborn"}],"Pforzheim":[{"latitude":48.8921862,"longitude":8.6946286,"locationName":"Pforzheim"}],"Potsdam":[{"latitude":52.3905689,"longitude":13.0644729,"locationName":"Potsdam"}],"Ramstein":[{"latitude":49.445759,"longitude":7.5545404,"locationName":"Ramstein"}],"Rastede":[{"latitude":53.2445468,"longitude":8.2005361,"locationName":"Rastede"}],"Recklinghausen":[{"latitude":51.6140649,"longitude":7.1979453,"locationName":"Recklinghausen"}],"Regensburg":[{"latitude":49.0134297,"longitude":12.1016236,"locationName":"Regensburg"}],"Remscheid":[{"latitude":51.1787418,"longitude":7.1896962,"locationName":"Remscheid"}],"Reutlingen":[{"latitude":48.5069389,"longitude":9.2038043,"locationName":"Reutlingen"}],"Rheda-Wdbrck":[{"latitude":51.8458575,"longitude":8.2997425,"locationName":"Rheda-Wdbrck"}],"Rodgau":[{"latitude":50.0012757,"longitude":8.8769235,"locationName":"Rodgau"}],"Rostock":[{"latitude":54.0924406,"longitude":12.0991466,"locationName":"Rostock"}],"Saarbrucken":[{"latitude":49.2401572,"longitude":6.9969327,"locationName":"Saarbrucken"}],"Salzgitter":[{"latitude":52.1378659,"longitude":10.3899126,"locationName":"Salzgitter"}],"Schleswig":[{"latitude":54.5239312,"longitude":9.563227,"locationName":"Schleswig"}],"Schwelm":[{"latitude":51.2882674,"longitude":7.291086,"locationName":"Schwelm"}],"Senftenberg":[{"latitude":51.5189796,"longitude":13.996908,"locationName":"Senftenberg"}],"Siegen":[{"latitude":50.8838492,"longitude":8.0209591,"locationName":"Siegen"}],"Solingen":[{"latitude":51.1702072,"longitude":7.0831408,"locationName":"Solingen"}],"Spangdahlem_Air_Base":[{"latitude":49.9729369,"longitude":6.7019995,"locationName":"Spangdahlem_Air_Base"}],"Stuttgart":[{"latitude":48.7758459,"longitude":9.1829321,"locationName":"Stuttgart"}],"Trier":[{"latitude":49.749992,"longitude":6.6371433,"locationName":"Trier"}],"Trostberg":[{"latitude":48.0252373,"longitude":12.5552575,"locationName":"Trostberg"}],"Tubingen":[{"latitude":48.5216364,"longitude":9.0576448,"locationName":"Tubingen"}],"Ulm":[{"latitude":48.4010822,"longitude":9.9876076,"locationName":"Ulm"}],"Villingen":[{"latitude":50.506679,"longitude":8.93424,"locationName":"Villingen"}],"Walldorf":[{"latitude":49.3063689,"longitude":8.6427693,"locationName":"Walldorf"}],"Weinheim":[{"latitude":49.544964,"longitude":8.6602703,"locationName":"Weinheim"}],"Wiesbaden":[{"latitude":50.0782184,"longitude":8.2397608,"locationName":"Wiesbaden"}],"Winsen":[{"latitude":53.3574436,"longitude":10.2127204,"locationName":"Winsen"}],"Witten":[{"latitude":51.4438926,"longitude":7.353197,"locationName":"Witten"}],"Wolfsburg":[{"latitude":52.4226503,"longitude":10.7865461,"locationName":"Wolfsburg"}],"Wuerzburg":[{"latitude":49.7913044,"longitude":9.9533548,"locationName":"Wuerzburg"}],"Wuppertal":[{"latitude":51.2562128,"longitude":7.1507636,"locationName":"Wuppertal"}]}},"Ghana":{"None":{"Accra":[{"latitude":5.6037168,"longitude":-0.1869644,"locationName":"Accra"}]}},"Greece":{"None":{"Athens":[{"latitude":37.98381,"longitude":23.727539,"locationName":"Athens"}],"Iraklion":[{"latitude":35.3387352,"longitude":25.1442126,"locationName":"Iraklion"}],"Piraeus":[{"latitude":37.9429857,"longitude":23.6469832,"locationName":"Piraeus"}],"Thessaloniki":[{"latitude":40.6400629,"longitude":22.9444191,"locationName":"Thessaloniki"}]}},"Grenada":{"Saint_George":{"Saint_Georges":[{"latitude":12.0560975,"longitude":-61.7487996,"locationName":"Saint_Georges"}]}},"Guadeloupe":{"None":{"Pointe_a_Pitre":[{"latitude":16.2376869,"longitude":-61.5340424,"locationName":"Pointe_a_Pitre"}]}},"Guatemala":{"None":{"Guatemala_City":[{"latitude":14.6349149,"longitude":-90.5068824,"locationName":"Guatemala_City"}],"Quesaltenango":[{"latitude":14.85207,"longitude":-91.530547,"locationName":"Quesaltenango"}]}},"Guyana":{"None":{"Georgetown":[{"latitude":6.801279,"longitude":-58.155125,"locationName":"Georgetown"}]}},"Haiti":{"None":{"Port-au-Prince":[{"latitude":18.594395,"longitude":-72.3074326,"locationName":"Port-au-Prince"}]}},"Honduras":{"None":{"Roatan":[{"latitude":16.3239655,"longitude":-86.5350176,"locationName":"Roatan"}],"San_Pedro_Sula":[{"latitude":15.5149204,"longitude":-87.9922684,"locationName":"San_Pedro_Sula"}],"Tegucigalpa":[{"latitude":14.0722751,"longitude":-87.192136,"locationName":"Tegucigalpa"}]}},"Hong_Kong":{"None":{"Hong_Kong":[{"latitude":22.396428,"longitude":114.109497,"locationName":"Hong_Kong"}]}},"Hungary":{"None":{"Bekescsaba":[{"latitude":46.6735939,"longitude":21.0877309,"locationName":"Bekescsaba"}],"Budapest":[{"latitude":47.497912,"longitude":19.040235,"locationName":"Budapest"}],"Debrecen":[{"latitude":47.5316049,"longitude":21.6273123,"locationName":"Debrecen"}],"Eger":[{"latitude":47.9025348,"longitude":20.3772284,"locationName":"Eger"}],"Gyor":[{"latitude":47.6874569,"longitude":17.6503974,"locationName":"Gyor"}],"Kaposvar":[{"latitude":46.3593606,"longitude":17.7967639,"locationName":"Kaposvar"}],"Kecskemet":[{"latitude":46.8963711,"longitude":19.6896861,"locationName":"Kecskemet"}],"Keszthely":[{"latitude":46.7654716,"longitude":17.2479554,"locationName":"Keszthely"}],"Miskolc":[{"latitude":48.1034775,"longitude":20.7784384,"locationName":"Miskolc"}],"Nyiregyhaza":[{"latitude":47.9495324,"longitude":21.7244053,"locationName":"Nyiregyhaza"}],"Pecs":[{"latitude":46.0727345,"longitude":18.232266,"locationName":"Pecs"}],"Salgotarjan":[{"latitude":48.0935237,"longitude":19.7999813,"locationName":"Salgotarjan"}],"Szeged":[{"latitude":46.2530102,"longitude":20.1414253,"locationName":"Szeged"}],"Szekesfehervar":[{"latitude":47.1860262,"longitude":18.4221358,"locationName":"Szekesfehervar"}],"Szekszard":[{"latitude":46.3474326,"longitude":18.7062293,"locationName":"Szekszard"}],"Szolnok":[{"latitude":47.1621355,"longitude":20.1824712,"locationName":"Szolnok"}],"Szombathely":[{"latitude":47.2306851,"longitude":16.6218441,"locationName":"Szombathely"}],"Tatabanya":[{"latitude":47.569246,"longitude":18.404818,"locationName":"Tatabanya"}],"Tolna":[{"latitude":46.4258265,"longitude":18.7752069,"locationName":"Tolna"}],"Veszprem":[{"latitude":47.1028087,"longitude":17.9093019,"locationName":"Veszprem"}],"Zalaegerszeg":[{"latitude":46.8416936,"longitude":16.8416322,"locationName":"Zalaegerszeg"}]}},"Iceland":{"None":{"Reykjavik":[{"latitude":64.1265206,"longitude":-21.8174393,"locationName":"Reykjavik"}]}},"India":{"None":{"Agartala":[{"latitude":23.831457,"longitude":91.2867777,"locationName":"Agartala"}],"Agra":[{"latitude":27.1766701,"longitude":78.0080745,"locationName":"Agra"}],"Aizawl":[{"latitude":23.727107,"longitude":92.7176389,"locationName":"Aizawl"}],"Allahabad":[{"latitude":25.4358011,"longitude":81.846311,"locationName":"Allahabad"}],"Aurangabad":[{"latitude":19.8761653,"longitude":75.3433139,"locationName":"Aurangabad"}],"Bengaluru":[{"latitude":12.9127524,"longitude":77.6076472,"locationName":"Bengaluru"}],"Bhopal":[{"latitude":23.2599333,"longitude":77.412615,"locationName":"Bhopal"}],"Bhubaneswar":[{"latitude":20.2960587,"longitude":85.8245398,"locationName":"Bhubaneswar"}],"Chandigarh":[{"latitude":30.7333148,"longitude":76.7794179,"locationName":"Chandigarh"}],"Chennai":[{"latitude":12.8682072,"longitude":80.2148769,"locationName":"Chennai"}],"Coimbatore":[{"latitude":11.0168445,"longitude":76.9558321,"locationName":"Coimbatore"}],"Daman":[{"latitude":20.3973736,"longitude":72.8327991,"locationName":"Daman"}],"Dehradun":[{"latitude":30.3164945,"longitude":78.0321918,"locationName":"Dehradun"}],"Delhi":[{"latitude":28.7040592,"longitude":77.1024902,"locationName":"Delhi"}],"Dhanbad":[{"latitude":23.7956531,"longitude":86.4303859,"locationName":"Dhanbad"}],"Dispur":[{"latitude":26.1433459,"longitude":91.7897953,"locationName":"Dispur"}],"Gandhinagar":[{"latitude":23.2156354,"longitude":72.6369415,"locationName":"Gandhinagar"}],"Gangtok":[{"latitude":27.3389356,"longitude":88.6065035,"locationName":"Gangtok"}],"Goa":[{"latitude":15.2993265,"longitude":74.123996,"locationName":"Goa"}],"Hyderabad":[{"latitude":17.385044,"longitude":78.486671,"locationName":"Hyderabad"}],"Imphal":[{"latitude":24.8170111,"longitude":93.9368439,"locationName":"Imphal"}],"Indore":[{"latitude":22.7195687,"longitude":75.8577258,"locationName":"Indore"}],"Itanagar":[{"latitude":27.0843682,"longitude":93.6053163,"locationName":"Itanagar"}],"Jabalpur":[{"latitude":23.181467,"longitude":79.9864071,"locationName":"Jabalpur"}],"Jaipur":[{"latitude":26.9124336,"longitude":75.7872709,"locationName":"Jaipur"}],"Jamnagar":[{"latitude":22.470702,"longitude":70.05773,"locationName":"Jamnagar"}],"Kavaratti":[{"latitude":10.5593204,"longitude":72.6358134,"locationName":"Kavaratti"}],"Kohima":[{"latitude":25.6585963,"longitude":94.1053307,"locationName":"Kohima"}],"Kolhapur":[{"latitude":16.7049873,"longitude":74.2432527,"locationName":"Kolhapur"}],"Kolkata":[{"latitude":22.572646,"longitude":88.363895,"locationName":"Kolkata"}],"Lucknow":[{"latitude":26.8466937,"longitude":80.946166,"locationName":"Lucknow"}],"Ludhiana":[{"latitude":30.900965,"longitude":75.8572758,"locationName":"Ludhiana"}],"Mumbai":[{"latitude":19.0408636,"longitude":72.8434571,"locationName":"Mumbai"}],"Nagpur":[{"latitude":21.1458004,"longitude":79.0881546,"locationName":"Nagpur"}],"New_Delhi":[{"latitude":28.6900124,"longitude":77.2079272,"locationName":"New_Delhi"}],"Panaji":[{"latitude":15.4909301,"longitude":73.8278496,"locationName":"Panaji"}],"Patna":[{"latitude":25.5940947,"longitude":85.1375645,"locationName":"Patna"}],"Pondicherry":[{"latitude":11.9138598,"longitude":79.8144722,"locationName":"Pondicherry"}],"Port_Blair":[{"latitude":11.6233774,"longitude":92.7264828,"locationName":"Port_Blair"}],"Pune":[{"latitude":18.5204303,"longitude":73.8567437,"locationName":"Pune"}],"Raipur":[{"latitude":21.2513844,"longitude":81.6296413,"locationName":"Raipur"}],"Rajahmundry":[{"latitude":17.0005383,"longitude":81.8040345,"locationName":"Rajahmundry"}],"Rajkot":[{"latitude":22.3038945,"longitude":70.8021599,"locationName":"Rajkot"}],"Ranchi":[{"latitude":23.3440997,"longitude":85.309562,"locationName":"Ranchi"}],"Shillong":[{"latitude":25.5787726,"longitude":91.8932535,"locationName":"Shillong"}],"Shimla":[{"latitude":31.1048145,"longitude":77.1734033,"locationName":"Shimla"}],"Siliguri":[{"latitude":26.7271012,"longitude":88.3952861,"locationName":"Siliguri"}],"Silvassa":[{"latitude":20.2762659,"longitude":73.0083061,"locationName":"Silvassa"}],"Srinagar":[{"latitude":34.0836708,"longitude":74.7972825,"locationName":"Srinagar"}],"Surat":[{"latitude":21.1702401,"longitude":72.8310607,"locationName":"Surat"}],"Thiruvananthapuram":[{"latitude":8.5241391,"longitude":76.9366376,"locationName":"Thiruvananthapuram"}],"Vijayawada":[{"latitude":16.5061743,"longitude":80.6480153,"locationName":"Vijayawada"}],"Visakhapatnam":[{"latitude":17.6868159,"longitude":83.2184815,"locationName":"Visakhapatnam"}],"Warangal":[{"latitude":17.9689008,"longitude":79.5940544,"locationName":"Warangal"}]}},"Indonesia":{"None":{"Banda_Aceh":[{"latitude":5.5482904,"longitude":95.3237559,"locationName":"Banda_Aceh"}],"Denpasar":[{"latitude":-8.6704582,"longitude":115.2126293,"locationName":"Denpasar"}],"Jakarta":[{"latitude":-6.2232862,"longitude":106.8236219,"locationName":"Jakarta"}],"Sukabumi":[{"latitude":-6.2132771,"longitude":106.8181864,"locationName":"Sukabumi"}],"Surabaya":[{"latitude":-7.2574719,"longitude":112.7520883,"locationName":"Surabaya"}]}},"Iran":{"None":{"Tehran":[{"latitude":35.6891975,"longitude":51.3889736,"locationName":"Tehran"}]}},"Iraq":{"None":{"An_Nasiriyah":[{"latitude":31.0452345,"longitude":46.2665911,"locationName":"An_Nasiriyah"}],"Baghdad":[{"latitude":33.3128057,"longitude":44.3614875,"locationName":"Baghdad"}],"Kirkuk":[{"latitude":35.4655761,"longitude":44.3803921,"locationName":"Kirkuk"}],"Mosul":[{"latitude":36.3566484,"longitude":43.1640004,"locationName":"Mosul"}],"Ur":[{"latitude":30.9608333,"longitude":46.1061111,"locationName":"Ur"}]}},"Ireland":{"None":{"Athlone":[{"latitude":53.4239331,"longitude":-7.9406898,"locationName":"Athlone"}],"Cork":[{"latitude":51.8968917,"longitude":-8.4863157,"locationName":"Cork"}],"Dublin":[{"latitude":53.3498053,"longitude":-6.2603097,"locationName":"Dublin"}],"Dundalk":[{"latitude":53.9979451,"longitude":-6.405957,"locationName":"Dundalk"}],"Ennis":[{"latitude":52.8474255,"longitude":-8.9887384,"locationName":"Ennis"}],"Galway":[{"latitude":53.270668,"longitude":-9.0567905,"locationName":"Galway"}],"Greystones":[{"latitude":53.1491175,"longitude":-6.0793414,"locationName":"Greystones"}],"Kilkenny":[{"latitude":52.6541454,"longitude":-7.2447879,"locationName":"Kilkenny"}],"Killarney":[{"latitude":52.0599353,"longitude":-9.5044265,"locationName":"Killarney"}],"Letterkenny":[{"latitude":54.9558392,"longitude":-7.7342787,"locationName":"Letterkenny"}],"Limerick":[{"latitude":52.6680204,"longitude":-8.6304975,"locationName":"Limerick"}],"Longford":[{"latitude":53.7275564,"longitude":-7.793109,"locationName":"Longford"}],"Oldcastle":[{"latitude":53.8583306,"longitude":-7.2047171,"locationName":"Oldcastle"}],"Port_Laoise":[{"latitude":53.0328123,"longitude":-7.2987933,"locationName":"Port_Laoise"}],"Tullamore":[{"latitude":53.2755255,"longitude":-7.4933852,"locationName":"Tullamore"}],"Waterford":[{"latitude":52.2593197,"longitude":-7.1100703,"locationName":"Waterford"}],"Westport":[{"latitude":53.802131,"longitude":-9.514347,"locationName":"Westport"}]}},"Israel":{"None":{"Beer-Sheva":[{"latitude":31.252973,"longitude":34.791462,"locationName":"Beer-Sheva"}],"Haifa":[{"latitude":32.7940463,"longitude":34.989571,"locationName":"Haifa"}],"Jerusalem":[{"latitude":31.768319,"longitude":35.21371,"locationName":"Jerusalem"}],"Nazareth":[{"latitude":32.699635,"longitude":35.303546,"locationName":"Nazareth"}],"Netanya":[{"latitude":32.321458,"longitude":34.853196,"locationName":"Netanya"}],"Ramat_Gan":[{"latitude":32.068424,"longitude":34.824785,"locationName":"Ramat_Gan"}],"Rehovot":[{"latitude":31.892773,"longitude":34.811272,"locationName":"Rehovot"}],"Tel_Aviv":[{"latitude":32.0852999,"longitude":34.7817676,"locationName":"Tel_Aviv"}]}},"Italy":{"None":{"Adelfia":[{"latitude":41.0037948,"longitude":16.8721877,"locationName":"Adelfia"}],"Alessandria":[{"latitude":44.9072727,"longitude":8.6116796,"locationName":"Alessandria"}],"Ancona":[{"latitude":43.6158299,"longitude":13.518915,"locationName":"Ancona"}],"Aosta":[{"latitude":45.734955,"longitude":7.313076,"locationName":"Aosta"}],"Bari":[{"latitude":41.1171432,"longitude":16.8718715,"locationName":"Bari"}],"Belluno":[{"latitude":46.142463,"longitude":12.216709,"locationName":"Belluno"}],"Bergamo":[{"latitude":45.6982642,"longitude":9.6772698,"locationName":"Bergamo"}],"Bologna":[{"latitude":44.7158897,"longitude":11.3114967,"locationName":"Bologna"}],"Bozen-Bolzano":[{"latitude":46.4982953,"longitude":11.3547582,"locationName":"Bozen-Bolzano"}],"Brescia":[{"latitude":45.5532916,"longitude":10.2435924,"locationName":"Brescia"}],"Bugnara":[{"latitude":42.0219869,"longitude":13.8609296,"locationName":"Bugnara"}],"Busto_Arsizio":[{"latitude":45.611892,"longitude":8.8531265,"locationName":"Busto_Arsizio"}],"Cagliari":[{"latitude":39.2238411,"longitude":9.1216613,"locationName":"Cagliari"}],"Campobasso":[{"latitude":41.5602544,"longitude":14.6627161,"locationName":"Campobasso"}],"Canosa_di_Puglia":[{"latitude":41.2224319,"longitude":16.0660707,"locationName":"Canosa_di_Puglia"}],"Carbonia":[{"latitude":39.1644281,"longitude":8.5228853,"locationName":"Carbonia"}],"Catania":[{"latitude":37.507877,"longitude":15.08303,"locationName":"Catania"}],"Catanzaro":[{"latitude":38.9097919,"longitude":16.5876516,"locationName":"Catanzaro"}],"Como":[{"latitude":45.8080597,"longitude":9.0851765,"locationName":"Como"}],"Ferrara":[{"latitude":44.8381237,"longitude":11.619787,"locationName":"Ferrara"}],"Florence":[{"latitude":43.76956,"longitude":11.255814,"locationName":"Florence"}],"Foggia":[{"latitude":41.4621984,"longitude":15.5446302,"locationName":"Foggia"}],"Forli":[{"latitude":44.2227398,"longitude":12.0407312,"locationName":"Forli"}],"Genoa":[{"latitude":44.40565,"longitude":8.946256,"locationName":"Genoa"}],"Giugliano":[{"latitude":40.9155632,"longitude":14.1039217,"locationName":"Giugliano"}],"Grosseto":[{"latitude":42.7635254,"longitude":11.1123634,"locationName":"Grosseto"}],"LAke_Iseo":[{"latitude":45.721871,"longitude":10.0670398,"locationName":"LAke_Iseo"}],"Latina":[{"latitude":41.4675671,"longitude":12.9035965,"locationName":"Latina"}],"Lecce":[{"latitude":40.3515155,"longitude":18.1750161,"locationName":"Lecce"}],"Lecco":[{"latitude":45.8565698,"longitude":9.3976704,"locationName":"Lecco"}],"Legnano":[{"latitude":45.5983403,"longitude":8.9142485,"locationName":"Legnano"}],"Livorno":[{"latitude":43.548473,"longitude":10.3105674,"locationName":"Livorno"}],"Lucca":[{"latitude":43.837621,"longitude":10.495061,"locationName":"Lucca"}],"L_Aquila":[{"latitude":42.3498479,"longitude":13.3995091,"locationName":"L_Aquila"}],"Macerata":[{"latitude":43.2984268,"longitude":13.4534767,"locationName":"Macerata"}],"Matera":[{"latitude":40.666379,"longitude":16.6043199,"locationName":"Matera"}],"Messina":[{"latitude":38.193814,"longitude":15.554015,"locationName":"Messina"}],"Milan":[{"latitude":45.4865701,"longitude":9.2531517,"locationName":"Milan"}],"Modena":[{"latitude":44.647128,"longitude":10.9252269,"locationName":"Modena"}],"Montevarchi":[{"latitude":43.530781,"longitude":11.5639528,"locationName":"Montevarchi"}],"Monza":[{"latitude":45.5845001,"longitude":9.2744485,"locationName":"Monza"}],"Naples":[{"latitude":40.851775,"longitude":14.268124,"locationName":"Naples"}],"Olbia":[{"latitude":40.9235764,"longitude":9.4964429,"locationName":"Olbia"}],"Oristano":[{"latitude":39.906182,"longitude":8.5883863,"locationName":"Oristano"}],"Padua":[{"latitude":45.4064349,"longitude":11.8767611,"locationName":"Padua"}],"Palermo":[{"latitude":38.115688,"longitude":13.361267,"locationName":"Palermo"}],"Parma":[{"latitude":44.801485,"longitude":10.3279036,"locationName":"Parma"}],"Perugia":[{"latitude":43.1107168,"longitude":12.3908279,"locationName":"Perugia"}],"Pescara":[{"latitude":42.4617902,"longitude":14.2160898,"locationName":"Pescara"}],"Pisa":[{"latitude":43.7228386,"longitude":10.4016888,"locationName":"Pisa"}],"Portici":[{"latitude":40.8141218,"longitude":14.339067,"locationName":"Portici"}],"Potenza":[{"latitude":40.6404067,"longitude":15.8056041,"locationName":"Potenza"}],"Prato":[{"latitude":43.8777049,"longitude":11.102228,"locationName":"Prato"}],"Ravenna":[{"latitude":44.4183598,"longitude":12.2035294,"locationName":"Ravenna"}],"Reggio_Calabria":[{"latitude":38.1113006,"longitude":15.6472914,"locationName":"Reggio_Calabria"}],"Reggio_Emilia":[{"latitude":44.704478,"longitude":10.625431,"locationName":"Reggio_Emilia"}],"Rieti":[{"latitude":42.404509,"longitude":12.8567281,"locationName":"Rieti"}],"Rimini":[{"latitude":44.0678288,"longitude":12.5695158,"locationName":"Rimini"}],"Rome":[{"latitude":41.902783,"longitude":12.496366,"locationName":"Rome"}],"Salerno":[{"latitude":40.6824408,"longitude":14.7680961,"locationName":"Salerno"}],"Samarate":[{"latitude":45.6260364,"longitude":8.7870324,"locationName":"Samarate"}],"Saronno":[{"latitude":45.6242491,"longitude":9.0359607,"locationName":"Saronno"}],"Sassari":[{"latitude":40.7259269,"longitude":8.5556826,"locationName":"Sassari"}],"Syracuse":[{"latitude":37.0754739,"longitude":15.2865861,"locationName":"Syracuse"}],"Taranto":[{"latitude":40.4643606,"longitude":17.2470303,"locationName":"Taranto"}],"Teramo":[{"latitude":42.8559297,"longitude":13.8188465,"locationName":"Teramo"}],"Terni":[{"latitude":42.5636168,"longitude":12.6426604,"locationName":"Terni"}],"Torino":[{"latitude":44.9334927,"longitude":7.5407494,"locationName":"Torino"}],"Trento":[{"latitude":46.074779,"longitude":11.121749,"locationName":"Trento"}],"Trieste":[{"latitude":45.649526,"longitude":13.776818,"locationName":"Trieste"}],"Turin-Torino":[{"latitude":45.070312,"longitude":7.686856,"locationName":"Turin-Torino"}],"Ustica_Island":[{"latitude":38.7031179,"longitude":13.1682675,"locationName":"Ustica_Island"}],"Venice":[{"latitude":45.440847,"longitude":12.315515,"locationName":"Venice"}],"Verona":[{"latitude":45.4383842,"longitude":10.9916215,"locationName":"Verona"}],"Vicenza":[{"latitude":45.5454787,"longitude":11.5354214,"locationName":"Vicenza"}],"Villata":[{"latitude":45.384721,"longitude":8.433696,"locationName":"Villata"}]}},"Jamaica":{"None":{"Kingston":[{"latitude":18.017874,"longitude":-76.809904,"locationName":"Kingston"}],"Mandeville":[{"latitude":18.031285,"longitude":-77.50461,"locationName":"Mandeville"}],"Mearnsville":[{"latitude":18.182313,"longitude":-78.0316676,"locationName":"Mearnsville"}],"Montego_Bay":[{"latitude":18.4762228,"longitude":-77.8938895,"locationName":"Montego_Bay"}]}},"Japan":{"None":{"Ageo":[{"latitude":35.9773805,"longitude":139.5932055,"locationName":"Ageo"}],"Akashi":[{"latitude":34.6431066,"longitude":134.9971787,"locationName":"Akashi"}],"Akita":[{"latitude":39.7200079,"longitude":140.1025642,"locationName":"Akita"}],"Amagasaki":[{"latitude":34.7337339,"longitude":135.4063757,"locationName":"Amagasaki"}],"Aomori":[{"latitude":40.822072,"longitude":140.7473647,"locationName":"Aomori"}],"Asahikawa":[{"latitude":43.7706355,"longitude":142.364819,"locationName":"Asahikawa"}],"Atsugi":[{"latitude":35.4430818,"longitude":139.3624889,"locationName":"Atsugi"}],"Chiba":[{"latitude":35.6072668,"longitude":140.1062907,"locationName":"Chiba"}],"Chigasaki":[{"latitude":35.3338596,"longitude":139.4047163,"locationName":"Chigasaki"}],"Chofu":[{"latitude":35.6506145,"longitude":139.5406936,"locationName":"Chofu"}],"Fuchu":[{"latitude":35.6689735,"longitude":139.4776614,"locationName":"Fuchu"}],"Fukui":[{"latitude":36.0640669,"longitude":136.2194938,"locationName":"Fukui"}],"Fukuoka":[{"latitude":33.5903547,"longitude":130.4017155,"locationName":"Fukuoka"}],"Fukushima":[{"latitude":37.7608337,"longitude":140.4747282,"locationName":"Fukushima"}],"Gifu":[{"latitude":35.4232984,"longitude":136.7606537,"locationName":"Gifu"}],"Hiroshima":[{"latitude":34.385203,"longitude":132.455293,"locationName":"Hiroshima"}],"H_IIB_Launch_Control_Tanegashima":[{"latitude":30.402222,"longitude":130.975,"locationName":"H_IIB_Launch_Control_Tanegashima"}],"Iwakuni":[{"latitude":34.1665616,"longitude":132.2188479,"locationName":"Iwakuni"}],"JEM_HTV_Control_Center_Tsukuba":[{"latitude":36.065778,"longitude":140.129806,"locationName":"JEM_HTV_Control_Center_Tsukuba"}],"Kagoshima":[{"latitude":31.5965535,"longitude":130.5571158,"locationName":"Kagoshima"}],"Kanazawa":[{"latitude":36.5613254,"longitude":136.6562051,"locationName":"Kanazawa"}],"Kobe":[{"latitude":34.7569578,"longitude":135.1476781,"locationName":"Kobe"}],"Kochi":[{"latitude":33.5595867,"longitude":133.5292788,"locationName":"Kochi"}],"Kofu":[{"latitude":35.66228,"longitude":138.5682015,"locationName":"Kofu"}],"Kumamoto":[{"latitude":32.8031004,"longitude":130.7078911,"locationName":"Kumamoto"}],"Kyoto":[{"latitude":35.0116363,"longitude":135.7680294,"locationName":"Kyoto"}],"Maebashi":[{"latitude":36.3894816,"longitude":139.0634281,"locationName":"Maebashi"}],"Matsue":[{"latitude":35.4680595,"longitude":133.048375,"locationName":"Matsue"}],"Matsuyama":[{"latitude":33.8391574,"longitude":132.7655752,"locationName":"Matsuyama"}],"Misawa":[{"latitude":40.6831337,"longitude":141.3689761,"locationName":"Misawa"}],"Mito":[{"latitude":36.3665027,"longitude":140.4709965,"locationName":"Mito"}],"Miyazaki":[{"latitude":31.9076736,"longitude":131.4202411,"locationName":"Miyazaki"}],"Morioka":[{"latitude":39.702053,"longitude":141.1544838,"locationName":"Morioka"}],"Nagano":[{"latitude":36.6485496,"longitude":138.1942432,"locationName":"Nagano"}],"Nagasaki":[{"latitude":32.750286,"longitude":129.877667,"locationName":"Nagasaki"}],"Nagoya":[{"latitude":35.1814464,"longitude":136.906398,"locationName":"Nagoya"}],"Naha":[{"latitude":26.2123124,"longitude":127.6791568,"locationName":"Naha"}],"Nara":[{"latitude":34.6850869,"longitude":135.8050002,"locationName":"Nara"}],"Niigata":[{"latitude":37.9161924,"longitude":139.0364126,"locationName":"Niigata"}],"Oita":[{"latitude":33.2395578,"longitude":131.609272,"locationName":"Oita"}],"Okayama":[{"latitude":34.6551456,"longitude":133.9195019,"locationName":"Okayama"}],"Osaka":[{"latitude":34.7536738,"longitude":135.5331015,"locationName":"Osaka"}],"Otsu":[{"latitude":35.0178929,"longitude":135.8546074,"locationName":"Otsu"}],"Saga":[{"latitude":33.263482,"longitude":130.3008576,"locationName":"Saga"}],"Saitama":[{"latitude":35.8617292,"longitude":139.6454822,"locationName":"Saitama"}],"Sapporo":[{"latitude":43.0620958,"longitude":141.3543763,"locationName":"Sapporo"}],"Sasebo_City":[{"latitude":33.179915,"longitude":129.71511,"locationName":"Sasebo_City"}],"Sendai":[{"latitude":38.268215,"longitude":140.8693558,"locationName":"Sendai"}],"Shimane":[{"latitude":35.4722952,"longitude":133.0504997,"locationName":"Shimane"}],"Shizuoka":[{"latitude":34.975562,"longitude":138.3827596,"locationName":"Shizuoka"}],"Takamtsu":[{"latitude":34.3427879,"longitude":134.046574,"locationName":"Takamtsu"}],"Tokushima":[{"latitude":34.0702703,"longitude":134.5548438,"locationName":"Tokushima"}],"Tokyo":[{"latitude":35.6602268,"longitude":139.6245193,"locationName":"Tokyo"}],"Tottori":[{"latitude":35.5011326,"longitude":134.2350914,"locationName":"Tottori"}],"Toyama":[{"latitude":36.6959518,"longitude":137.2136768,"locationName":"Toyama"}],"Tsu":[{"latitude":34.718596,"longitude":136.5056975,"locationName":"Tsu"}],"Tsukuba":[{"latitude":36.0834857,"longitude":140.0766423,"locationName":"Tsukuba"}],"Utsunomiya":[{"latitude":36.5551124,"longitude":139.8828072,"locationName":"Utsunomiya"}],"Wakayama":[{"latitude":34.2305113,"longitude":135.1708083,"locationName":"Wakayama"}],"Yamagata":[{"latitude":38.2554388,"longitude":140.3396017,"locationName":"Yamagata"}],"Yamaguchi":[{"latitude":34.178496,"longitude":131.4737269,"locationName":"Yamaguchi"}],"Yokohama":[{"latitude":35.4437078,"longitude":139.6380256,"locationName":"Yokohama"}]}},"Jordan":{"None":{"Amman":[{"latitude":31.9453666,"longitude":35.9283716,"locationName":"Amman"}]}},"Kazakhstan":{"None":{"Aktau":[{"latitude":43.6410973,"longitude":51.1985113,"locationName":"Aktau"}],"Almaty":[{"latitude":43.2220146,"longitude":76.8512485,"locationName":"Almaty"}],"Astana":[{"latitude":51.1605227,"longitude":71.4703558,"locationName":"Astana"}],"Atyrau":[{"latitude":47.0944959,"longitude":51.9238373,"locationName":"Atyrau"}],"Baikonur":[{"latitude":45.6232258,"longitude":63.3139829,"locationName":"Baikonur"}],"Baikonur_Cosmodrome":[{"latitude":45.859478,"longitude":63.313359,"locationName":"Baikonur_Cosmodrome"}],"Karaganda":[{"latitude":49.8046835,"longitude":73.1093826,"locationName":"Karaganda"}],"Kostanay":[{"latitude":53.2198089,"longitude":63.6354232,"locationName":"Kostanay"}]}},"Kenya":{"None":{"Nairobi":[{"latitude":-1.2439727,"longitude":36.8928729,"locationName":"Nairobi"}]}},"Kuwait":{"None":{"Kuwait_City":[{"latitude":29.375859,"longitude":47.9774052,"locationName":"Kuwait_City"}]}},"Kyrgyzstan":{"None":{"Manas_Air_Base":[{"latitude":43.0502,"longitude":74.4694,"locationName":"Manas_Air_Base"}]}},"Laos":{"None":{"Vientiane":[{"latitude":17.9757058,"longitude":102.6331035,"locationName":"Vientiane"}]}},"Latvia":{"None":{"Riga":[{"latitude":56.9496487,"longitude":24.1051864,"locationName":"Riga"}]}},"Lebanon":{"None":{"Beirut":[{"latitude":33.8937913,"longitude":35.5017767,"locationName":"Beirut"}]}},"Liberia":{"None":{"Monrovia":[{"latitude":6.2907432,"longitude":-10.7605239,"locationName":"Monrovia"}]}},"Lithuania":{"None":{"Vilnius":[{"latitude":54.6871555,"longitude":25.2796514,"locationName":"Vilnius"}]}},"Luxembourg":{"None":{"Luxembourg":[{"latitude":49.815273,"longitude":6.129583,"locationName":"Luxembourg"}]}},"Macedonia":{"None":{"Bitola":[{"latitude":41.0296773,"longitude":21.3292164,"locationName":"Bitola"}],"Skopje":[{"latitude":41.9973462,"longitude":21.4279956,"locationName":"Skopje"}]}},"Madagascar":{"None":{"Antananarivo":[{"latitude":-18.8791902,"longitude":47.5079055,"locationName":"Antananarivo"}]}},"Malawi":{"None":{"Blantyre":[{"latitude":-15.7666707,"longitude":35.0167866,"locationName":"Blantyre"}],"Lilongwe":[{"latitude":-13.9626121,"longitude":33.7741195,"locationName":"Lilongwe"}]}},"Malaysia":{"None":{"Ipoh":[{"latitude":4.210484,"longitude":101.975766,"locationName":"Ipoh"}],"Kuala_Lumpur":[{"latitude":3.139003,"longitude":101.686855,"locationName":"Kuala_Lumpur"}],"Penang":[{"latitude":5.414167,"longitude":100.328759,"locationName":"Penang"}],"Petaling_Jaya":[{"latitude":3.127887,"longitude":101.594489,"locationName":"Petaling_Jaya"}],"Selayang":[{"latitude":3.263739,"longitude":101.653824,"locationName":"Selayang"}]}},"Malta":{"None":{"Rabat":[{"latitude":35.885499,"longitude":14.373372,"locationName":"Rabat"}],"Sliema":[{"latitude":35.9110081,"longitude":14.502904,"locationName":"Sliema"}],"Valletta":[{"latitude":35.8989085,"longitude":14.5145528,"locationName":"Valletta"}]}},"Marshall_Islands":{"None":{"Kwajalein":[{"latitude":9.1898235,"longitude":167.4242972,"locationName":"Kwajalein"}]}},"Mauritius":{"None":{"Port_Louis":[{"latitude":-20.1608912,"longitude":57.5012222,"locationName":"Port_Louis"}]}},