{
  "Afghanistan": {
    "None": [
      {
        "latitude": 34.5553494,
        "longitude": 69.207486,
        "city": "Kabul"
      }
    ]
  },
  "Albania": {
    "None": [
      {
        "latitude": 41.3275459,
        "longitude": 19.8186982,
        "city": "Tirana"
      }
    ]
  },
  "Algeria": {
    "None": [
      {
        "latitude": 36.7537703,
        "longitude": 3.0587927,
        "city": "Algiers"
      }
    ]
  },
  "Angola": {
    "None": [
      {
        "latitude": -8.8399876,
        "longitude": 13.2894368,
        "city": "Luanda"
      }
    ]
  },
  "Antigua": {
    "None": [
      {
        "latitude": 17.0746557,
        "longitude": -61.8175207,
        "city": "Saint_Johns"
      }
    ]
  },
  "Argentina": {
    "None": [
      {
        "latitude": -41.1334722,
        "longitude": -71.3102778,
        "city": "Bariloche"
      },
      {
        "latitude": -34.6036844,
        "longitude": -58.3815591,
        "city": "Buenos_Aires"
      },
      {
        "latitude": -34.1633346,
        "longitude": -58.9592643,
        "city": "Campana"
      },
      {
        "latitude": -29.8817186,
        "longitude": -61.9460573,
        "city": "Ceres"
      },
      {
        "latitude": -31.4200833,
        "longitude": -64.1887761,
        "city": "Cordoba"
      },
      {
        "latitude": -27.4692131,
        "longitude": -58.8306349,
        "city": "Corrientes"
      },
      {
        "latitude": -26.1857768,
        "longitude": -58.1755669,
        "city": "Formosa"
      },
      {
        "latitude": -39.0267525,
        "longitude": -67.5751724,
        "city": "General_Roca"
      },
      {
        "latitude": -34.9204948,
        "longitude": -57.9535657,
        "city": "La_Plata"
      },
      {
        "latitude": -29.413454,
        "longitude": -66.856458,
        "city": "La_Rioja"
      },
      {
        "latitude": -38.0054771,
        "longitude": -57.5426106,
        "city": "Mar_del_Plata"
      },
      {
        "latitude": -32.8894587,
        "longitude": -68.8458386,
        "city": "Mendoza"
      },
      {
        "latitude": -34.655861,
        "longitude": -58.616721,
        "city": "Moron"
      },
      {
        "latitude": -38.9516784,
        "longitude": -68.0591888,
        "city": "Neuquen"
      },
      {
        "latitude": -31.7413197,
        "longitude": -60.5115471,
        "city": "Parana"
      },
      {
        "latitude": -27.3621374,
        "longitude": -55.9008746,
        "city": "Posadas"
      },
      {
        "latitude": -43.2998581,
        "longitude": -65.0994873,
        "city": "Rawson"
      },
      {
        "latitude": -27.4518622,
        "longitude": -58.9855547,
        "city": "Resistencia"
      },
      {
        "latitude": -51.6230485,
        "longitude": -69.2168291,
        "city": "Rio_Gallegos"
      },
      {
        "latitude": -24.7821269,
        "longitude": -65.4231976,
        "city": "Salta"
      },
      {
        "latitude": -31.6106578,
        "longitude": -60.697294,
        "city": "Santa_Fe"
      },
      {
        "latitude": -36.620922,
        "longitude": -64.291237,
        "city": "Santa_Rosa"
      },
      {
        "latitude": -27.7833574,
        "longitude": -64.264167,
        "city": "Santiago_del_Estero"
      },
      {
        "latitude": -28.469581,
        "longitude": -65.7795441,
        "city": "San_Fernando_del_Valle"
      },
      {
        "latitude": -31.535107,
        "longitude": -68.538594,
        "city": "San_Juan"
      },
      {
        "latitude": -33.3017267,
        "longitude": -66.3377522,
        "city": "San_Luis"
      },
      {
        "latitude": -26.8082848,
        "longitude": -65.2175903,
        "city": "San_Miguel_de_Tucuman"
      },
      {
        "latitude": -33.6757835,
        "longitude": -59.6628664,
        "city": "San_Pedro"
      },
      {
        "latitude": -24.1857864,
        "longitude": -65.2994767,
        "city": "San_Salvador_de_Jujuy"
      },
      {
        "latitude": -54.8019121,
        "longitude": -68.3029511,
        "city": "Ushuaia"
      },
      {
        "latitude": -40.8119087,
        "longitude": -62.9962044,
        "city": "Viedma"
      }
    ]
  },
  "Aruba": {
    "None": [
      {
        "latitude": 12.5092044,
        "longitude": -70.0086306,
        "city": "Oranjestad"
      }
    ]
  },
  "Australia": {
    "ACT": [
      {
        "latitude": -35.2809368,
        "longitude": 149.1300092,
        "city": "Canberra"
      }
    ],
    "New_South_Wales": [
      {
        "latitude": -36.0737293,
        "longitude": 146.9135418,
        "city": "Albury"
      },
      {
        "latitude": -30.5015616,
        "longitude": 151.6661993,
        "city": "Armidale"
      },
      {
        "latitude": -31.9539135,
        "longitude": 141.4539396,
        "city": "Broken_Hill"
      },
      {
        "latitude": -28.866667,
        "longitude": 153.05,
        "city": "Casino"
      },
      {
        "latitude": -32.8345098,
        "longitude": 151.3624266,
        "city": "Cessnock"
      },
      {
        "latitude": -30.298612,
        "longitude": 153.1093922,
        "city": "Coffs_Harbour"
      },
      {
        "latitude": -31.2733434,
        "longitude": 149.219061,
        "city": "Coonabarabran"
      },
      {
        "latitude": -34.641667,
        "longitude": 148.025,
        "city": "Cootamundra"
      },
      {
        "latitude": -32.180556,
        "longitude": 152.511667,
        "city": "Forster"
      },
      {
        "latitude": -29.6816894,
        "longitude": 152.9336547,
        "city": "Grafton"
      },
      {
        "latitude": -34.2800883,
        "longitude": 146.0455313,
        "city": "Griffith"
      },
      {
        "latitude": -36.22,
        "longitude": 148.126944,
        "city": "Khancoban"
      },
      {
        "latitude": -32.816667,
        "longitude": 151.483333,
        "city": "Kurri_Kurri"
      },
      {
        "latitude": -33.0539197,
        "longitude": 151.6432586,
        "city": "Lake_Macquarie"
      },
      {
        "latitude": -28.8093154,
        "longitude": 153.2882876,
        "city": "Lismore"
      },
      {
        "latitude": -33.4827345,
        "longitude": 150.1570173,
        "city": "Lithgow"
      },
      {
        "latitude": -32.715,
        "longitude": 152.151111,
        "city": "Nelson_Bay"
      },
      {
        "latitude": -32.928333,
        "longitude": 151.781667,
        "city": "Newcastle"
      },
      {
        "latitude": -33.1372943,
        "longitude": 148.1747161,
        "city": "Parkes"
      },
      {
        "latitude": -33.75,
        "longitude": 150.7,
        "city": "Penrith"
      },
      {
        "latitude": -33.8688197,
        "longitude": 151.2092955,
        "city": "Sydney"
      },
      {
        "latitude": -31.092748,
        "longitude": 150.9320334,
        "city": "Tamworth"
      },
      {
        "latitude": -28.1786656,
        "longitude": 153.5370011,
        "city": "Tweed_Heads"
      },
      {
        "latitude": -35.1081689,
        "longitude": 147.3598323,
        "city": "Wagga_Wagga"
      },
      {
        "latitude": -34.4278121,
        "longitude": 150.8930607,
        "city": "Wollongong"
      }
    ],
    "Norfolk_Island": [
      {
        "latitude": -29.0563937,
        "longitude": 167.959588,
        "city": "Kingston"
      }
    ],
    "Northern_Territory": [
      {
        "latitude": -23.698042,
        "longitude": 133.8807471,
        "city": "Alice_Springs"
      },
      {
        "latitude": -12.4634403,
        "longitude": 130.8456418,
        "city": "Darwin"
      },
      {
        "latitude": -14.4521139,
        "longitude": 132.2715145,
        "city": "Katherine"
      }
    ],
    "Queensland": [
      {
        "latitude": -20.0014803,
        "longitude": 148.2262176,
        "city": "Bowen"
      },
      {
        "latitude": -27.4697707,
        "longitude": 153.0251235,
        "city": "Brisbane"
      },
      {
        "latitude": -16.9185514,
        "longitude": 145.7780548,
        "city": "Cairns"
      },
      {
        "latitude": -26.799,
        "longitude": 153.133,
        "city": "Caloundra"
      },
      {
        "latitude": -23.527291,
        "longitude": 148.164573,
        "city": "Emerald"
      },
      {
        "latitude": -23.8426494,
        "longitude": 151.2488592,
        "city": "Gladstone"
      },
      {
        "latitude": -21.1424956,
        "longitude": 149.1821469,
        "city": "Mackay"
      },
      {
        "latitude": -25.5232627,
        "longitude": 152.6970636,
        "city": "Maryborough"
      },
      {
        "latitude": -23.3790772,
        "longitude": 150.510016,
        "city": "Rockhampton"
      },
      {
        "latitude": -27.5598212,
        "longitude": 151.9506696,
        "city": "Toowoomba"
      },
      {
        "latitude": -19.2589635,
        "longitude": 146.8169483,
        "city": "Townsville"
      }
    ],
    "South_Australia": [
      {
        "latitude": -34.9284989,
        "longitude": 138.6007456,
        "city": "Adelaide"
      },
      {
        "latitude": -30.5908141,
        "longitude": 138.3992865,
        "city": "Leigh_Creek"
      },
      {
        "latitude": -32.974213,
        "longitude": 138.8343623,
        "city": "Peterborough"
      },
      {
        "latitude": -31.1656389,
        "longitude": 136.8192607,
        "city": "Woomera"
      }
    ],
    "Tasmania": [
      {
        "latitude": -41.0528583,
        "longitude": 145.9052168,
        "city": "Burnie"
      },
      {
        "latitude": -42.8821377,
        "longitude": 147.3271949,
        "city": "Hobart"
      },
      {
        "latitude": -41.4332215,
        "longitude": 147.1440875,
        "city": "Launceston"
      }
    ],
    "Victoria": [
      {
        "latitude": -37.5621587,
        "longitude": 143.8502556,
        "city": "Ballarat"
      },
      {
        "latitude": -36.5462177,
        "longitude": 145.963353,
        "city": "Benalla"
      },
      {
        "latitude": -36.7570157,
        "longitude": 144.2793906,
        "city": "Bendigo"
      },
      {
        "latitude": -35.966667,
        "longitude": 145.65,
        "city": "Cobram"
      },
      {
        "latitude": -37.981,
        "longitude": 145.215,
        "city": "Dandenong"
      },
      {
        "latitude": -37.8136276,
        "longitude": 144.9630576,
        "city": "Melbourne"
      },
      {
        "latitude": -34.2080167,
        "longitude": 142.1245535,
        "city": "Mildura"
      },
      {
        "latitude": -38.073568,
        "longitude": 145.4851308,
        "city": "Pakenham"
      },
      {
        "latitude": -38.1026004,
        "longitude": 147.073027,
        "city": "Sale"
      },
      {
        "latitude": -36.383333,
        "longitude": 145.4,
        "city": "Shepparton"
      },
      {
        "latitude": -37.581111,
        "longitude": 144.713889,
        "city": "Sunbury"
      },
      {
        "latitude": -38.2033531,
        "longitude": 146.519786,
        "city": "Traralgon"
      },
      {
        "latitude": -37.3194005,
        "longitude": 144.4052024,
        "city": "Tylden"
      },
      {
        "latitude": -38.3686779,
        "longitude": 142.4982086,
        "city": "Warrnambool"
      },
      {
        "latitude": -38.565594,
        "longitude": 146.6751045,
        "city": "Yarram"
      }
    ],
    "Western_Australia": [
      {
        "latitude": -35.0275298,
        "longitude": 117.883959,
        "city": "Albany"
      },
      {
        "latitude": -34.293246,
        "longitude": 115.139245,
        "city": "Augusta"
      },
      {
        "latitude": -32.2505105,
        "longitude": 124.1889498,
        "city": "Balladonia"
      },
      {
        "latitude": -17.9614336,
        "longitude": 122.235852,
        "city": "Broome"
      },
      {
        "latitude": -33.325636,
        "longitude": 115.6396494,
        "city": "Bunbury"
      },
      {
        "latitude": -24.884,
        "longitude": 113.661,
        "city": "Carnarvon"
      },
      {
        "latitude": -32.0376086,
        "longitude": 126.097027,
        "city": "Cocklebiddy"
      },
      {
        "latitude": -17.3179064,
        "longitude": 123.6490372,
        "city": "Derby"
      },
      {
        "latitude": -33.8608027,
        "longitude": 121.8896205,
        "city": "Esperance"
      },
      {
        "latitude": -31.6772316,
        "longitude": 128.8897862,
        "city": "Eucla"
      },
      {
        "latitude": -21.9445261,
        "longitude": 114.1313015,
        "city": "Exmouth"
      },
      {
        "latitude": -18.1906989,
        "longitude": 125.567496,
        "city": "Fitzroy_Crossing"
      },
      {
        "latitude": -28.7773715,
        "longitude": 114.6149715,
        "city": "Geraldton"
      },
      {
        "latitude": -30.749,
        "longitude": 121.466,
        "city": "Kalgoorlie"
      },
      {
        "latitude": -20.73535,
        "longitude": 116.8458043,
        "city": "Karratha"
      },
      {
        "latitude": -15.7785409,
        "longitude": 128.7416854,
        "city": "Kununurra"
      },
      {
        "latitude": -33.1,
        "longitude": 118.46,
        "city": "Lake_Grace"
      },
      {
        "latitude": -28.628,
        "longitude": 122.403,
        "city": "Laverton"
      },
      {
        "latitude": -34.2455371,
        "longitude": 116.1442778,
        "city": "Manjimup"
      },
      {
        "latitude": -26.593611,
        "longitude": 118.495278,
        "city": "Meekatharra"
      },
      {
        "latitude": -31.4837097,
        "longitude": 118.2770821,
        "city": "Merredin"
      },
      {
        "latitude": -28.06,
        "longitude": 117.846111,
        "city": "Mount_Magnet"
      },
      {
        "latitude": -32.196,
        "longitude": 121.778,
        "city": "Norseman"
      },
      {
        "latitude": -31.6525301,
        "longitude": 116.6654836,
        "city": "Northam"
      },
      {
        "latitude": -31.9505269,
        "longitude": 115.8604572,
        "city": "Perth"
      },
      {
        "latitude": -20.3106621,
        "longitude": 118.5878223,
        "city": "Port_Hedland"
      },
      {
        "latitude": -30.7641012,
        "longitude": 125.3836191,
        "city": "Rawlinna"
      },
      {
        "latitude": -31.230556,
        "longitude": 119.327778,
        "city": "Southern_Cross"
      },
      {
        "latitude": -22.6938735,
        "longitude": 117.7938645,
        "city": "Tom_Price"
      },
      {
        "latitude": -33.3053993,
        "longitude": 117.3474325,
        "city": "Wagin"
      },
      {
        "latitude": -26.1352581,
        "longitude": 126.5782945,
        "city": "Warburton"
      },
      {
        "latitude": -26.595,
        "longitude": 120.225,
        "city": "Wiluna"
      },
      {
        "latitude": -30.0803525,
        "longitude": 116.6136935,
        "city": "Wubin"
      },
      {
        "latitude": -15.4825,
        "longitude": 128.122778,
        "city": "Wyndham"
      },
      {
        "latitude": -16.1333333,
        "longitude": 123.6333333,
        "city": "Yampi_Sound"
      }
    ]
  },
  "Austria": {
    "None": [
      {
        "latitude": 48.00214,
        "longitude": 16.23091,
        "city": "Baden"
      },
      {
        "latitude": 46.6883735,
        "longitude": 15.2464264,
        "city": "Eibiswald"
      },
      {
        "latitude": 47.91839,
        "longitude": 13.79933,
        "city": "Gmunden"
      },
      {
        "latitude": 47.070714,
        "longitude": 15.439504,
        "city": "Graz"
      },
      {
        "latitude": 48.66607,
        "longitude": 15.65716,
        "city": "Horn"
      },
      {
        "latitude": 47.2692124,
        "longitude": 11.4041024,
        "city": "Innsbruck"
      },
      {
        "latitude": 47.16826,
        "longitude": 14.65811,
        "city": "Judenburg"
      },
      {
        "latitude": 47.4433293,
        "longitude": 15.2791914,
        "city": "Kapfenberg"
      },
      {
        "latitude": 46.6364598,
        "longitude": 14.3122246,
        "city": "Klagenfurt"
      },
      {
        "latitude": 48.30694,
        "longitude": 14.28583,
        "city": "Linz"
      },
      {
        "latitude": 48.233,
        "longitude": 15.333,
        "city": "Melk"
      },
      {
        "latitude": 48.08255,
        "longitude": 16.2869,
        "city": "Modling"
      },
      {
        "latitude": 47.11304,
        "longitude": 14.16904,
        "city": "Murau"
      },
      {
        "latitude": 48.2081743,
        "longitude": 16.3738189,
        "city": "Vienna"
      },
      {
        "latitude": 48.00334,
        "longitude": 13.65613,
        "city": "Vocklabruck"
      },
      {
        "latitude": 47.96023,
        "longitude": 14.77283,
        "city": "Waidhofen"
      }
    ]
  },
  "Bahamas": {
    "None": [
      {
        "latitude": 24.7063805,
        "longitude": -78.0195387,
        "city": "Andros_Island"
      },
      {
        "latitude": 24.1836,
        "longitude": -76.4563,
        "city": "Big_Major_Cay"
      },
      {
        "latitude": 25.0479835,
        "longitude": -77.355413,
        "city": "Nassau"
      }
    ]
  },
  "Bahrain": {
    "None": [
      {
        "latitude": 26.2285161,
        "longitude": 50.5860497,
        "city": "Manama"
      }
    ]
  },
  "Bangladesh": {
    "None": [
      {
        "latitude": 22.3475365,
        "longitude": 91.8123324,
        "city": "Chittagong"
      },
      {
        "latitude": 23.7716426,
        "longitude": 90.4014785,
        "city": "Dhaka"
      }
    ]
  },
  "Barbados": {
    "None": [
      {
        "latitude": 13.1132219,
        "longitude": -59.5988089,
        "city": "Bridgetown"
      }
    ]
  },
  "Belarus": {
    "None": [
      {
        "latitude": 53.1446069,
        "longitude": 29.2213753,
        "city": "Bobruisk"
      },
      {
        "latitude": 52.097621,
        "longitude": 23.73405,
        "city": "Brest"
      },
      {
        "latitude": 52.4411761,
        "longitude": 30.9878462,
        "city": "Gomel"
      },
      {
        "latitude": 53.6693538,
        "longitude": 23.8131306,
        "city": "Hrodna"
      },
      {
        "latitude": 53.9045398,
        "longitude": 27.5615244,
        "city": "Minsk"
      },
      {
        "latitude": 53.9007159,
        "longitude": 30.3313598,
        "city": "Mogilev"
      },
      {
        "latitude": 55.1848061,
        "longitude": 30.201622,
        "city": "Viciebsk"
      }
    ]
  },
  "Belgium": {
    "None": [
      {
        "latitude": 50.9378101,
        "longitude": 4.0409517,
        "city": "Aalst"
      },
      {
        "latitude": 51.2194475,
        "longitude": 4.4024643,
        "city": "Antwerp"
      },
      {
        "latitude": 51.209348,
        "longitude": 3.2246995,
        "city": "Bruges"
      },
      {
        "latitude": 50.8503396,
        "longitude": 4.3517103,
        "city": "Brussels"
      },
      {
        "latitude": 50.4108095,
        "longitude": 4.444643,
        "city": "Charleroi"
      },
      {
        "latitude": 51.1852719,
        "longitude": 3.5638899,
        "city": "Eeklo"
      },
      {
        "latitude": 50.6292029,
        "longitude": 6.0337111,
        "city": "Eupen"
      },
      {
        "latitude": 51.0543422,
        "longitude": 3.7174243,
        "city": "Ghent"
      },
      {
        "latitude": 50.5187153,
        "longitude": 5.2396656,
        "city": "Huy"
      },
      {
        "latitude": 50.6325574,
        "longitude": 5.5796662,
        "city": "Liege"
      },
      {
        "latitude": 50.4673883,
        "longitude": 4.8719854,
        "city": "Namur"
      },
      {
        "latitude": 50.8674164,
        "longitude": 4.3772981,
        "city": "Schaerbeek"
      },
      {
        "latitude": 51.06498,
        "longitude": 3.10157,
        "city": "Torhout"
      },
      {
        "latitude": 50.71469,
        "longitude": 4.3991,
        "city": "Waterloo"
      },
      {
        "latitude": 50.7841386,
        "longitude": 3.0448969,
        "city": "Wervik"
      }
    ]
  },
  "Belize": {
    "None": [
      {
        "latitude": 17.5045661,
        "longitude": -88.1962133,
        "city": "Belize_City"
      }
    ]
  },
  "Bermuda": {
    "None": [
      {
        "latitude": 32.294816,
        "longitude": -64.781375,
        "city": "Hamilton"
      },
      {
        "latitude": 32.366861,
        "longitude": -64.683646,
        "city": "St_George"
      }
    ]
  },
  "Bolivia": {
    "None": [
      {
        "latitude": -17.4139766,
        "longitude": -66.1653224,
        "city": "Cochabamba"
      },
      {
        "latitude": -16.489689,
        "longitude": -68.1192936,
        "city": "La_Paz"
      },
      {
        "latitude": -17.814582,
        "longitude": -63.156085,
        "city": "Santa_Cruz"
      }
    ]
  },
  "Bonaire": {
    "None": [
      {
        "latitude": 12.1443491,
        "longitude": -68.2655456,
        "city": "Kralendijk"
      }
    ]
  },
  "Bosnia": {
    "None": [
      {
        "latitude": 43.8562586,
        "longitude": 18.4130763,
        "city": "Sarajevo"
      },
      {
        "latitude": 44.533,
        "longitude": 18.683,
        "city": "Tuzla"
      }
    ]
  },
  "Botswana": {
    "None": [
      {
        "latitude": -24.6282079,
        "longitude": 25.9231471,
        "city": "Gaborone"
      }
    ]
  },
  "Brazil": {
    "None": [
      {
        "latitude": -10.9472468,
        "longitude": -37.0730823,
        "city": "Aracaju"
      },
      {
        "latitude": -22.314459,
        "longitude": -49.0586951,
        "city": "Bauru"
      },
      {
        "latitude": -1.4557549,
        "longitude": -48.4901799,
        "city": "Belem"
      },
      {
        "latitude": -19.9324906,
        "longitude": -44.0080435,
        "city": "Belo_Horizonte"
      },
      {
        "latitude": -26.9165792,
        "longitude": -49.0717331,
        "city": "Blumenau"
      },
      {
        "latitude": 2.8235098,
        "longitude": -60.6758331,
        "city": "Boa_Vista"
      },
      {
        "latitude": -15.794229,
        "longitude": -47.882166,
        "city": "Brasilia"
      },
      {
        "latitude": -22.9099384,
        "longitude": -47.0626332,
        "city": "Campinas"
      },
      {
        "latitude": -7.2290752,
        "longitude": -35.8808337,
        "city": "Campina_Grande"
      },
      {
        "latitude": -20.4697105,
        "longitude": -54.6201211,
        "city": "Campo_Grande"
      },
      {
        "latitude": -24.9577771,
        "longitude": -53.4595112,
        "city": "Cascavel"
      },
      {
        "latitude": -29.1634031,
        "longitude": -51.1796683,
        "city": "Caxias_do_Sul"
      },
      {
        "latitude": -15.6014109,
        "longitude": -56.0978917,
        "city": "Cuiaba"
      },
      {
        "latitude": -25.4289541,
        "longitude": -49.267137,
        "city": "Curitiba"
      },
      {
        "latitude": -27.5953778,
        "longitude": -48.5480499,
        "city": "Florianopolis"
      },
      {
        "latitude": -3.7318616,
        "longitude": -38.5266704,
        "city": "Fortaleza"
      },
      {
        "latitude": -16.6868912,
        "longitude": -49.2647943,
        "city": "Goiania"
      },
      {
        "latitude": -23.4542498,
        "longitude": -46.5337925,
        "city": "Guarulhos"
      },
      {
        "latitude": -23.2987827,
        "longitude": -45.9662542,
        "city": "Jacarei"
      },
      {
        "latitude": -7.1817487,
        "longitude": -34.869841,
        "city": "Joao_Pessoa"
      },
      {
        "latitude": -21.7624237,
        "longitude": -43.3433999,
        "city": "Juiz_de_Fora"
      },
      {
        "latitude": -22.5665354,
        "longitude": -47.3974368,
        "city": "Limeira"
      },
      {
        "latitude": -22.3836705,
        "longitude": -41.7827461,
        "city": "Macae"
      },
      {
        "latitude": 0.0355735,
        "longitude": -51.070535,
        "city": "Macapa"
      },
      {
        "latitude": -9.6498487,
        "longitude": -35.7089492,
        "city": "Maceio"
      },
      {
        "latitude": -3.1190275,
        "longitude": -60.0217314,
        "city": "Manaus"
      },
      {
        "latitude": -5.3811357,
        "longitude": -49.1331024,
        "city": "Maraba"
      },
      {
        "latitude": -5.7792569,
        "longitude": -35.200916,
        "city": "Natal"
      },
      {
        "latitude": -10.249091,
        "longitude": -48.3242858,
        "city": "Palmas"
      },
      {
        "latitude": -18.5872582,
        "longitude": -46.5146749,
        "city": "Patos_de_Minas"
      },
      {
        "latitude": -22.7342864,
        "longitude": -47.6480644,
        "city": "Piracicaba"
      },
      {
        "latitude": -21.7853787,
        "longitude": -46.5619303,
        "city": "Pocos_de_Caldas"
      },
      {
        "latitude": -30.0346471,
        "longitude": -51.2176584,
        "city": "Porto_Alegre"
      },
      {
        "latitude": -8.7611605,
        "longitude": -63.9004303,
        "city": "Porto_Velho"
      },
      {
        "latitude": -8.0578381,
        "longitude": -34.8828969,
        "city": "Recife"
      },
      {
        "latitude": -21.1704008,
        "longitude": -47.8103238,
        "city": "Ribeirao_Preto"
      },
      {
        "latitude": -9.975377,
        "longitude": -67.8248977,
        "city": "Rio_Branco"
      },
      {
        "latitude": -22.4149023,
        "longitude": -47.5651394,
        "city": "Rio_Claro"
      },
      {
        "latitude": -22.9068467,
        "longitude": -43.1728965,
        "city": "Rio_de_Janeiro"
      },
      {
        "latitude": -12.9730401,
        "longitude": -38.502304,
        "city": "Salvador"
      },
      {
        "latitude": -29.6873064,
        "longitude": -53.8154769,
        "city": "Santa_Maria"
      },
      {
        "latitude": -23.9678823,
        "longitude": -46.3288865,
        "city": "Santos"
      },
      {
        "latitude": -22.8272883,
        "longitude": -43.0637646,
        "city": "Sao_Goncalo"
      },
      {
        "latitude": -2.5391099,
        "longitude": -44.2829046,
        "city": "Sao_Luis"
      },
      {
        "latitude": -18.7191438,
        "longitude": -39.8567437,
        "city": "Sao_Mateus"
      },
      {
        "latitude": -23.5505199,
        "longitude": -46.6333094,
        "city": "Sao_Paulo"
      },
      {
        "latitude": -5.0446853,
        "longitude": -42.7662325,
        "city": "Teresina"
      },
      {
        "latitude": -22.4169605,
        "longitude": -42.9756016,
        "city": "Teresopolis"
      },
      {
        "latitude": -23.0972163,
        "longitude": -47.7144578,
        "city": "Tiete"
      },
      {
        "latitude": -21.3699248,
        "longitude": -45.5113164,
        "city": "Tres_Pontas"
      },
      {
        "latitude": -20.3477821,
        "longitude": -40.2949528,
        "city": "Vila_Velha"
      },
      {
        "latitude": -14.845066,
        "longitude": -40.8861365,
        "city": "Vitoria_da_Conquista"
      },
      {
        "latitude": -23.540286,
        "longitude": -47.4445978,
        "city": "Votorantim"
      }
    ]
  },
  "Brunei": {
    "None": [
      {
        "latitude": 4.9030522,
        "longitude": 114.939821,
        "city": "Bandar_Seri_Begawan"
      }
    ]
  },
  "Bulgaria": {
    "None": [
      {
        "latitude": 42.6977082,
        "longitude": 23.3218675,
        "city": "Sofia"
      }
    ]
  },
  "Cameroon": {
    "None": [
      {
        "latitude": 4.0510564,
        "longitude": 9.7678687,
        "city": "Douala"
      },
      {
        "latitude": 3.8480325,
        "longitude": 11.5020752,
        "city": "Yaounde"
      }
    ]
  },
  "Canada": {
    "Alberta": [
      {
        "latitude": 51.0486151,
        "longitude": -114.0708459,
        "city": "Calgary"
      },
      {
        "latitude": 53.0222045,
        "longitude": -112.8285983,
        "city": "Camrose"
      },
      {
        "latitude": 54.4643173,
        "longitude": -110.1731468,
        "city": "Cold_Lake"
      },
      {
        "latitude": 53.2214074,
        "longitude": -114.9766786,
        "city": "Drayton_Valley"
      },
      {
        "latitude": 53.544389,
        "longitude": -113.4909267,
        "city": "Edmonton"
      },
      {
        "latitude": 56.7263796,
        "longitude": -111.3803407,
        "city": "Fort_McMurray"
      },
      {
        "latitude": 53.7007157,
        "longitude": -113.2094659,
        "city": "Fort_Saskatchewan"
      },
      {
        "latitude": 55.1699396,
        "longitude": -118.7986152,
        "city": "Grande_Prairie"
      },
      {
        "latitude": 54.7696415,
        "longitude": -111.972514,
        "city": "Lac_La_Biche"
      },
      {
        "latitude": 49.69349,
        "longitude": -112.84184,
        "city": "Lethbridge"
      },
      {
        "latitude": 53.2779625,
        "longitude": -110.0061451,
        "city": "Lloydminster"
      },
      {
        "latitude": 50.0405486,
        "longitude": -110.6764258,
        "city": "Medicine_Hat"
      },
      {
        "latitude": 53.0920817,
        "longitude": -113.4702831,
        "city": "Millet"
      },
      {
        "latitude": 52.2681118,
        "longitude": -113.8112386,
        "city": "Red_Deer"
      },
      {
        "latitude": 52.3793432,
        "longitude": -114.9182883,
        "city": "Rocky_Mountain_House"
      },
      {
        "latitude": 54.1521565,
        "longitude": -113.851419,
        "city": "Westlock"
      }
    ],
    "British_Columbia": [
      {
        "latitude": 51.6439705,
        "longitude": -121.2950097,
        "city": "100_Mile_House"
      },
      {
        "latitude": 49.054587,
        "longitude": -122.328026,
        "city": "Abbotsford"
      },
      {
        "latitude": 49.2488091,
        "longitude": -122.9805104,
        "city": "Burnaby"
      },
      {
        "latitude": 49.3237408,
        "longitude": -117.6593341,
        "city": "Castlegar"
      },
      {
        "latitude": 55.6976802,
        "longitude": -121.6296734,
        "city": "Chetwynd"
      },
      {
        "latitude": 49.1579401,
        "longitude": -121.9514666,
        "city": "Chilliwack"
      },
      {
        "latitude": 49.2837626,
        "longitude": -122.7932065,
        "city": "Coquitlam"
      },
      {
        "latitude": 49.6841391,
        "longitude": -124.9904493,
        "city": "Courtenay"
      },
      {
        "latitude": 49.5129678,
        "longitude": -115.7694002,
        "city": "Cranbrook"
      },
      {
        "latitude": 49.0955401,
        "longitude": -116.5135079,
        "city": "Creston"
      },
      {
        "latitude": 56.252423,
        "longitude": -120.846409,
        "city": "Fort_Saint_John"
      },
      {
        "latitude": 49.7781637,
        "longitude": -126.0496149,
        "city": "Gold_River"
      },
      {
        "latitude": 50.674522,
        "longitude": -120.3272674,
        "city": "Kamloops"
      },
      {
        "latitude": 49.8879519,
        "longitude": -119.4960106,
        "city": "Kelowna"
      },
      {
        "latitude": 49.6651567,
        "longitude": -115.9967206,
        "city": "Kimberley"
      },
      {
        "latitude": 50.1113079,
        "longitude": -120.7862222,
        "city": "Merritt"
      },
      {
        "latitude": 49.1658836,
        "longitude": -123.9400647,
        "city": "Nanaimo"
      },
      {
        "latitude": 49.4928119,
        "longitude": -117.2948343,
        "city": "Nelson"
      },
      {
        "latitude": 49.4991381,
        "longitude": -119.5937077,
        "city": "Penticton"
      },
      {
        "latitude": 49.2338882,
        "longitude": -124.8055494,
        "city": "Port_Alberni"
      },
      {
        "latitude": 49.8352352,
        "longitude": -124.5247062,
        "city": "Powell_River"
      },
      {
        "latitude": 53.9170641,
        "longitude": -122.7496693,
        "city": "Prince_George"
      },
      {
        "latitude": 49.1665898,
        "longitude": -123.133569,
        "city": "Richmond"
      },
      {
        "latitude": 53.243025,
        "longitude": -131.820879,
        "city": "Sandspit"
      },
      {
        "latitude": 48.6502411,
        "longitude": -123.399005,
        "city": "Sidney"
      },
      {
        "latitude": 49.1044302,
        "longitude": -122.801094,
        "city": "Surrey"
      },
      {
        "latitude": 54.5181925,
        "longitude": -128.603154,
        "city": "Terrace"
      },
      {
        "latitude": 49.2827291,
        "longitude": -123.1207375,
        "city": "Vancouver"
      },
      {
        "latitude": 50.2670137,
        "longitude": -119.2720107,
        "city": "Vernon"
      },
      {
        "latitude": 48.4284207,
        "longitude": -123.3656444,
        "city": "Victoria"
      },
      {
        "latitude": 52.1416736,
        "longitude": -122.1416885,
        "city": "Williams_Lake"
      }
    ],
    "Manitoba": [
      {
        "latitude": 49.848471,
        "longitude": -99.9500904,
        "city": "Brandon"
      },
      {
        "latitude": 49.5085651,
        "longitude": -98.0016988,
        "city": "Carman"
      },
      {
        "latitude": 51.76932,
        "longitude": -98.6393929,
        "city": "Gypsumville"
      },
      {
        "latitude": 50.2277044,
        "longitude": -99.4667714,
        "city": "Neepawa"
      },
      {
        "latitude": 51.31567,
        "longitude": -97.5601434,
        "city": "Peguis"
      },
      {
        "latitude": 49.9723205,
        "longitude": -98.2903251,
        "city": "Portage_La_Prairie"
      },
      {
        "latitude": 53.8255265,
        "longitude": -101.2476129,
        "city": "The_Pas"
      },
      {
        "latitude": 55.7449251,
        "longitude": -97.8508715,
        "city": "Thompson"
      },
      {
        "latitude": 49.8486678,
        "longitude": -100.9325285,
        "city": "Virden"
      },
      {
        "latitude": 49.8997541,
        "longitude": -97.1374937,
        "city": "Winnipeg"
      }
    ],
    "Newfoundland": [
      {
        "latitude": 49.9392654,
        "longitude": -56.1907286,
        "city": "Baie_Verte"
      },
      {
        "latitude": 48.9489967,
        "longitude": -57.9502726,
        "city": "Corner_Brook"
      },
      {
        "latitude": 53.3016826,
        "longitude": -60.3260842,
        "city": "Goose_Bay"
      },
      {
        "latitude": 48.9320529,
        "longitude": -55.6528053,
        "city": "Grand_Falls"
      },
      {
        "latitude": 48.015794,
        "longitude": -53.2671909,
        "city": "Hants_Harbour"
      },
      {
        "latitude": 47.5605413,
        "longitude": -52.7128315,
        "city": "Saint_Johns"
      },
      {
        "latitude": 49.471061,
        "longitude": -58.126798,
        "city": "Trout_River"
      }
    ],
    "New_Brunswick": [
      {
        "latitude": 47.6183507,
        "longitude": -65.6513358,
        "city": "Bathurst"
      },
      {
        "latitude": 48.007399,
        "longitude": -66.6722057,
        "city": "Campbellton"
      },
      {
        "latitude": 45.9635895,
        "longitude": -66.6431151,
        "city": "Fredericton"
      },
      {
        "latitude": 47.0295709,
        "longitude": -65.5059061,
        "city": "Miramichi"
      },
      {
        "latitude": 46.0878165,
        "longitude": -64.7782313,
        "city": "Moncton"
      },
      {
        "latitude": 45.2733153,
        "longitude": -66.0633081,
        "city": "Saint_John"
      }
    ],
    "Nova_Scotia": [
      {
        "latitude": 44.3721167,
        "longitude": -64.5208798,
        "city": "Bridgewater"
      },
      {
        "latitude": 44.6488625,
        "longitude": -63.5753196,
        "city": "Halifax"
      },
      {
        "latitude": 45.0769115,
        "longitude": -64.4944735,
        "city": "Kentville"
      },
      {
        "latitude": 45.1402166,
        "longitude": -61.979911,
        "city": "Sherbrooke"
      },
      {
        "latitude": 46.1367899,
        "longitude": -60.194224,
        "city": "Sydney"
      },
      {
        "latitude": 45.3657733,
        "longitude": -63.2869407,
        "city": "Truro"
      }
    ],
    "NW_Territories": [
      {
        "latitude": 69.1168641,
        "longitude": -105.0596814,
        "city": "Cambridge_Bay"
      },
      {
        "latitude": 63.7149378,
        "longitude": -68.4986394,
        "city": "Iqaluit"
      },
      {
        "latitude": 62.459665,
        "longitude": -114.3821062,
        "city": "Yellowknife"
      }
    ],
    "Ontario": [
      {
        "latitude": 42.7729381,
        "longitude": -80.9828842,
        "city": "Aylmer"
      },
      {
        "latitude": 45.0558574,
        "longitude": -77.8548814,
        "city": "Bancroft"
      },
      {
        "latitude": 44.3893556,
        "longitude": -79.6903316,
        "city": "Barrie"
      },
      {
        "latitude": 44.1840483,
        "longitude": -76.771219,
        "city": "Bath"
      },
      {
        "latitude": 44.1627589,
        "longitude": -77.3832315,
        "city": "Belleville"
      },
      {
        "latitude": 43.9126042,
        "longitude": -78.688019,
        "city": "Bowmanville"
      },
      {
        "latitude": 43.7315479,
        "longitude": -79.7624177,
        "city": "Brampton"
      },
      {
        "latitude": 43.3255196,
        "longitude": -79.7990319,
        "city": "Burlington"
      },
      {
        "latitude": 43.3616211,
        "longitude": -80.3144276,
        "city": "Cambridge"
      },
      {
        "latitude": 42.4048018,
        "longitude": -82.1910376,
        "city": "Chatham"
      },
      {
        "latitude": 43.9593373,
        "longitude": -78.1677363,
        "city": "Cobourg"
      },
      {
        "latitude": 44.1894183,
        "longitude": -79.7007401,
        "city": "Cookstown"
      },
      {
        "latitude": 45.0212762,
        "longitude": -74.730345,
        "city": "Cornwall"
      },
      {
        "latitude": 49.7800938,
        "longitude": -92.8369592,
        "city": "Dryden"
      },
      {
        "latitude": 46.386179,
        "longitude": -82.650941,
        "city": "Elliot_Lake"
      },
      {
        "latitude": 43.6502046,
        "longitude": -79.9036236,
        "city": "Georgetown"
      },
      {
        "latitude": 45.9114017,
        "longitude": -82.4597783,
        "city": "Gore_Bay"
      },
      {
        "latitude": 43.3130397,
        "longitude": -81.7562242,
        "city": "Grand_Bend"
      },
      {
        "latitude": 46.522099,
        "longitude": -80.9530353,
        "city": "Greater_Sudbury"
      },
      {
        "latitude": 43.5448048,
        "longitude": -80.2481666,
        "city": "Guelph"
      },
      {
        "latitude": 43.2500208,
        "longitude": -79.8660914,
        "city": "Hamilton"
      },
      {
        "latitude": 49.2122192,
        "longitude": -84.7714443,
        "city": "Hornepayne"
      },
      {
        "latitude": 45.3269323,
        "longitude": -79.2167539,
        "city": "Huntsville"
      },
      {
        "latitude": 44.9988842,
        "longitude": -74.9897993,
        "city": "Ingleside"
      },
      {
        "latitude": 45.556352,
        "longitude": -79.2235611,
        "city": "Kearney"
      },
      {
        "latitude": 49.7670416,
        "longitude": -94.4893924,
        "city": "Kenora"
      },
      {
        "latitude": 44.2266889,
        "longitude": -79.453512,
        "city": "Keswick"
      },
      {
        "latitude": 44.1752954,
        "longitude": -81.6365715,
        "city": "Kincardine"
      },
      {
        "latitude": 44.2311717,
        "longitude": -76.4859544,
        "city": "Kingston"
      },
      {
        "latitude": 43.450301,
        "longitude": -80.4831917,
        "city": "Kitchener"
      },
      {
        "latitude": 43.317431,
        "longitude": -79.826372,
        "city": "La_Salle"
      },
      {
        "latitude": 44.3565742,
        "longitude": -78.7407542,
        "city": "Lindsay"
      },
      {
        "latitude": 42.9869502,
        "longitude": -81.243177,
        "city": "London"
      },
      {
        "latitude": 43.8561002,
        "longitude": -79.3370188,
        "city": "Markham"
      },
      {
        "latitude": 43.5182991,
        "longitude": -79.8774042,
        "city": "Milton"
      },
      {
        "latitude": 43.5890452,
        "longitude": -79.6441198,
        "city": "Mississauga"
      },
      {
        "latitude": 51.273089,
        "longitude": -80.640049,
        "city": "Moosonee"
      },
      {
        "latitude": 44.059187,
        "longitude": -79.461256,
        "city": "Newmarket"
      },
      {
        "latitude": 43.0895577,
        "longitude": -79.0849436,
        "city": "Niagara_Falls"
      },
      {
        "latitude": 46.3091152,
        "longitude": -79.4608204,
        "city": "North_Bay"
      },
      {
        "latitude": 43.467517,
        "longitude": -79.6876659,
        "city": "Oakville"
      },
      {
        "latitude": 43.8970929,
        "longitude": -78.8657912,
        "city": "Oshawa"
      },
      {
        "latitude": 45.4215296,
        "longitude": -75.6971931,
        "city": "Ottawa"
      },
      {
        "latitude": 44.5690305,
        "longitude": -80.9405602,
        "city": "Owen_Sound"
      },
      {
        "latitude": 45.8266513,
        "longitude": -77.1108826,
        "city": "Pembroke"
      },
      {
        "latitude": 44.309058,
        "longitude": -78.319747,
        "city": "Peterborough"
      },
      {
        "latitude": 43.8384117,
        "longitude": -79.0867579,
        "city": "Pickering"
      },
      {
        "latitude": 45.213191,
        "longitude": -79.275791,
        "city": "Port_Sydney"
      },
      {
        "latitude": 43.8828401,
        "longitude": -79.4402808,
        "city": "Richmond_Hill"
      },
      {
        "latitude": 43.1593745,
        "longitude": -79.2468626,
        "city": "Saint_Catharines"
      },
      {
        "latitude": 42.974536,
        "longitude": -82.4065901,
        "city": "Sarnia"
      },
      {
        "latitude": 46.521858,
        "longitude": -84.3460896,
        "city": "Sault_Sainte_Marie"
      },
      {
        "latitude": 42.8372632,
        "longitude": -80.3040424,
        "city": "Simcoe"
      },
      {
        "latitude": 43.3700007,
        "longitude": -80.9822286,
        "city": "Stratford"
      },
      {
        "latitude": 44.5617896,
        "longitude": -80.4529392,
        "city": "Thornbury"
      },
      {
        "latitude": 48.3808951,
        "longitude": -89.2476823,
        "city": "Thunder_Bay"
      },
      {
        "latitude": 48.4758208,
        "longitude": -81.3304953,
        "city": "Timmins"
      },
      {
        "latitude": 43.653226,
        "longitude": -79.3831843,
        "city": "Toronto"
      },
      {
        "latitude": 43.8372079,
        "longitude": -79.508276,
        "city": "Vaughan"
      },
      {
        "latitude": 43.3247102,
        "longitude": -79.9030371,
        "city": "Waterdown"
      },
      {
        "latitude": 43.4642578,
        "longitude": -80.5204096,
        "city": "Waterloo"
      },
      {
        "latitude": 42.9555662,
        "longitude": -81.8799198,
        "city": "Watford"
      },
      {
        "latitude": 47.992417,
        "longitude": -84.7710588,
        "city": "Wawa"
      },
      {
        "latitude": 43.8975446,
        "longitude": -78.9429329,
        "city": "Whitby"
      },
      {
        "latitude": 42.3149367,
        "longitude": -83.0363633,
        "city": "Windsor"
      },
      {
        "latitude": 43.1314966,
        "longitude": -80.7471651,
        "city": "Woodstock"
      }
    ],
    "Prince_Edward_Isl": [
      {
        "latitude": 46.23824,
        "longitude": -63.1310704,
        "city": "Charlottetown"
      }
    ],
    "Quebec": [
      {
        "latitude": 48.5504607,
        "longitude": -71.6527704,
        "city": "Alma"
      },
      {
        "latitude": 48.4646053,
        "longitude": -67.4311915,
        "city": "Amqui"
      },
      {
        "latitude": 49.2212971,
        "longitude": -68.1503944,
        "city": "Baie_Comeau"
      },
      {
        "latitude": 45.3150817,
        "longitude": -73.8779033,
        "city": "Beauharnois"
      },
      {
        "latitude": 45.5913698,
        "longitude": -73.4364097,
        "city": "Boucherville"
      },
      {
        "latitude": 46.3622521,
        "longitude": -72.5067098,
        "city": "Cap_De_La_Madeleine"
      },
      {
        "latitude": 48.349494,
        "longitude": -64.6769768,
        "city": "Chandler"
      },
      {
        "latitude": 49.9132295,
        "longitude": -74.3691986,
        "city": "Chibougamau"
      },
      {
        "latitude": 48.3516735,
        "longitude": -71.1385136,
        "city": "Chicoutimi"
      },
      {
        "latitude": 53.7826457,
        "longitude": -78.8937214,
        "city": "Chisasibi"
      },
      {
        "latitude": 45.991745,
        "longitude": -74.095086,
        "city": "Deauville"
      },
      {
        "latitude": 48.8316351,
        "longitude": -64.4869016,
        "city": "Gaspe"
      },
      {
        "latitude": 45.4765446,
        "longitude": -75.7012723,
        "city": "Gatineau"
      },
      {
        "latitude": 48.3958679,
        "longitude": -64.4912636,
        "city": "Grand_Riviere"
      },
      {
        "latitude": 45.428731,
        "longitude": -75.7133658,
        "city": "Hull"
      },
      {
        "latitude": 45.0891,
        "longitude": -74.1766,
        "city": "Huntingdon"
      },
      {
        "latitude": 45.6066487,
        "longitude": -73.712409,
        "city": "Laval"
      },
      {
        "latitude": 47.4383405,
        "longitude": -72.7839311,
        "city": "La_Tuque"
      },
      {
        "latitude": 46.7382265,
        "longitude": -71.2464592,
        "city": "Levis"
      },
      {
        "latitude": 45.5369442,
        "longitude": -73.5107131,
        "city": "Longeuil"
      },
      {
        "latitude": 45.6518959,
        "longitude": -74.0901696,
        "city": "Mirabel"
      },
      {
        "latitude": 48.886394,
        "longitude": -72.215741,
        "city": "Mistassini"
      },
      {
        "latitude": 45.498332,
        "longitude": -73.406507,
        "city": "Mobile_Servicing_System_Operations_Complex_Saint_Hubert"
      },
      {
        "latitude": 45.5016889,
        "longitude": -73.567256,
        "city": "Montreal"
      },
      {
        "latitude": 46.8138783,
        "longitude": -71.2079809,
        "city": "Quebec"
      },
      {
        "latitude": 48.4389803,
        "longitude": -68.5349704,
        "city": "Rimouski"
      },
      {
        "latitude": 48.4280529,
        "longitude": -71.0684923,
        "city": "Saguenay"
      },
      {
        "latitude": 45.379181,
        "longitude": -73.5644913,
        "city": "Saint_Constant"
      },
      {
        "latitude": 46.1229184,
        "longitude": -70.670352,
        "city": "Saint_Georges"
      },
      {
        "latitude": 45.775357,
        "longitude": -74.004948,
        "city": "Saint_Jerome"
      },
      {
        "latitude": 46.1214043,
        "longitude": -74.5944241,
        "city": "Saint_Jovite"
      },
      {
        "latitude": 45.3028161,
        "longitude": -74.3032421,
        "city": "Saint_Polycarpe"
      },
      {
        "latitude": 45.4009928,
        "longitude": -71.8824288,
        "city": "Sherbrooke"
      },
      {
        "latitude": 46.042825,
        "longitude": -73.112302,
        "city": "Sorel"
      },
      {
        "latitude": 45.6929818,
        "longitude": -73.6331102,
        "city": "Terrebonne"
      },
      {
        "latitude": 46.1028329,
        "longitude": -71.3055522,
        "city": "Thetford_Mines"
      },
      {
        "latitude": 46.3546803,
        "longitude": -72.5837866,
        "city": "Trois-Rivieres"
      },
      {
        "latitude": 48.0987106,
        "longitude": -77.7967676,
        "city": "Val_d_Or"
      }
    ],
    "Saskatchewan": [
      {
        "latitude": 49.1390842,
        "longitude": -102.9914807,
        "city": "Estevan"
      },
      {
        "latitude": 50.9830819,
        "longitude": -107.1342746,
        "city": "Lucky_Lake"
      },
      {
        "latitude": 50.3915811,
        "longitude": -105.5348562,
        "city": "Moose_Jaw"
      },
      {
        "latitude": 52.7764752,
        "longitude": -108.2974555,
        "city": "North_Battleford"
      },
      {
        "latitude": 53.2033494,
        "longitude": -105.7530705,
        "city": "Prince_Albert"
      },
      {
        "latitude": 50.4452112,
        "longitude": -104.6188944,
        "city": "Regina"
      },
      {
        "latitude": 52.1332144,
        "longitude": -106.6700458,
        "city": "Saskatoon"
      },
      {
        "latitude": 51.6745142,
        "longitude": -105.4683377,
        "city": "Watrous"
      },
      {
        "latitude": 51.2174482,
        "longitude": -102.4739331,
        "city": "Yorkton"
      }
    ],
    "Yukon_Territory": [
      {
        "latitude": 60.7211871,
        "longitude": -135.0568449,
        "city": "Whitehorse"
      }
    ]
  },
  "Chile": {
    "None": [
      {
        "latitude": -23.6509279,
        "longitude": -70.3975022,
        "city": "Antofagasta"
      },
      {
        "latitude": -18.4782534,
        "longitude": -70.3125988,
        "city": "Arica"
      },
      {
        "latitude": -45.5712254,
        "longitude": -72.068265,
        "city": "Coihaique"
      },
      {
        "latitude": -36.8201352,
        "longitude": -73.0443904,
        "city": "Concepcion"
      },
      {
        "latitude": -27.3665763,
        "longitude": -70.3321587,
        "city": "Copiapo"
      },
      {
        "latitude": -20.2307033,
        "longitude": -70.1356692,
        "city": "Iquique"
      },
      {
        "latitude": -29.9026691,
        "longitude": -71.2519374,
        "city": "La_Serena"
      },
      {
        "latitude": -41.468917,
        "longitude": -72.9411364,
        "city": "Puerto_Montt"
      },
      {
        "latitude": -53.1638329,
        "longitude": -70.9170683,
        "city": "Punta_Arenas"
      },
      {
        "latitude": -34.1701324,
        "longitude": -70.7406259,
        "city": "Rancagua"
      },
      {
        "latitude": -33.4488897,
        "longitude": -70.6692655,
        "city": "Santiago"
      },
      {
        "latitude": -35.2575,
        "longitude": -72.2677778,
        "city": "Talca"
      },
      {
        "latitude": -38.7359018,
        "longitude": -72.5903739,
        "city": "Temuco"
      },
      {
        "latitude": -33.047238,
        "longitude": -71.6126885,
        "city": "Valparaiso"
      }
    ]
  },
  "China": {
    "None": [
      {
        "latitude": 39.9431802,
        "longitude": 116.3695425,
        "city": "Beijing"
      },
      {
        "latitude": 43.817072,
        "longitude": 125.323544,
        "city": "Changchun"
      },
      {
        "latitude": 28.228209,
        "longitude": 112.938814,
        "city": "Changsha"
      },
      {
        "latitude": 30.572816,
        "longitude": 104.066801,
        "city": "Chengdu"
      },
      {
        "latitude": 29.56301,
        "longitude": 106.551556,
        "city": "Chongqing"
      },
      {
        "latitude": 26.074508,
        "longitude": 119.296494,
        "city": "Fuzhou"
      },
      {
        "latitude": 23.12911,
        "longitude": 113.264385,
        "city": "Guangzhou"
      },
      {
        "latitude": 26.647661,
        "longitude": 106.630154,
        "city": "Guiyang"
      },
      {
        "latitude": 20.044002,
        "longitude": 110.198293,
        "city": "Haikou"
      },
      {
        "latitude": 30.274085,
        "longitude": 120.15507,
        "city": "Hangzhou"
      },
      {
        "latitude": 45.803775,
        "longitude": 126.534967,
        "city": "Harbin"
      },
      {
        "latitude": 31.820592,
        "longitude": 117.227219,
        "city": "Hefei"
      },
      {
        "latitude": 40.842585,
        "longitude": 111.749181,
        "city": "Hohhot"
      },
      {
        "latitude": 22.3799639,
        "longitude": 114.2676665,
        "city": "Hong_Kong"
      },
      {
        "latitude": 36.651216,
        "longitude": 117.12,
        "city": "Jinan"
      },
      {
        "latitude": 24.880095,
        "longitude": 102.832892,
        "city": "Kunming"
      },
      {
        "latitude": 36.061089,
        "longitude": 103.834304,
        "city": "Lanzhou"
      },
      {
        "latitude": 29.652491,
        "longitude": 91.17211,
        "city": "Lhasa"
      },
      {
        "latitude": 22.2047465,
        "longitude": 113.5552031,
        "city": "Macau"
      },
      {
        "latitude": 28.682892,
        "longitude": 115.858198,
        "city": "Nanchang"
      },
      {
        "latitude": 32.060255,
        "longitude": 118.796877,
        "city": "Nanjing"
      },
      {
        "latitude": 22.817002,
        "longitude": 108.366543,
        "city": "Nanning"
      },
      {
        "latitude": 31.230416,
        "longitude": 121.473701,
        "city": "Shanghai"
      },
      {
        "latitude": 41.805699,
        "longitude": 123.431472,
        "city": "Shenyang"
      },
      {
        "latitude": 38.042307,
        "longitude": 114.51486,
        "city": "Shijiazhuang"
      },
      {
        "latitude": 37.87059,
        "longitude": 112.548879,
        "city": "Taiyuan"
      },
      {
        "latitude": 39.1024168,
        "longitude": 117.2829735,
        "city": "Tianjin"
      },
      {
        "latitude": 43.825592,
        "longitude": 87.616848,
        "city": "Urumqi"
      },
      {
        "latitude": 30.593099,
        "longitude": 114.305393,
        "city": "Wuhan"
      },
      {
        "latitude": 34.341575,
        "longitude": 108.93977,
        "city": "Xian"
      },
      {
        "latitude": 36.617134,
        "longitude": 101.778224,
        "city": "Xining"
      },
      {
        "latitude": 38.487194,
        "longitude": 106.230909,
        "city": "Yinchuan"
      },
      {
        "latitude": 34.746611,
        "longitude": 113.625328,
        "city": "Zhengzhou"
      }
    ]
  },
  "Colombia": {
    "None": [
      {
        "latitude": 4.535092,
        "longitude": -75.673156,
        "city": "Armenia"
      },
      {
        "latitude": 11.0041072,
        "longitude": -74.8069813,
        "city": "Barranquilla"
      },
      {
        "latitude": 4.7109886,
        "longitude": -74.072092,
        "city": "Bogota"
      },
      {
        "latitude": 7.119349,
        "longitude": -73.1227416,
        "city": "Bucaramanga"
      },
      {
        "latitude": 3.4516467,
        "longitude": -76.5319854,
        "city": "Cali"
      },
      {
        "latitude": 10.3910485,
        "longitude": -75.4794257,
        "city": "Cartagena"
      },
      {
        "latitude": 4.7472212,
        "longitude": -75.9116289,
        "city": "Cartago"
      },
      {
        "latitude": 5.070275,
        "longitude": -75.5138166,
        "city": "Manizales"
      },
      {
        "latitude": 6.2530408,
        "longitude": -75.5645737,
        "city": "Medellin"
      },
      {
        "latitude": 8.750983,
        "longitude": -75.8785348,
        "city": "Monteria"
      },
      {
        "latitude": 1.2058837,
        "longitude": -77.285787,
        "city": "Pasto"
      },
      {
        "latitude": 4.8087174,
        "longitude": -75.690601,
        "city": "Pereira"
      },
      {
        "latitude": 2.4448143,
        "longitude": -76.6147395,
        "city": "Popayan"
      },
      {
        "latitude": 11.2403547,
        "longitude": -74.2110227,
        "city": "Santa_Marta"
      },
      {
        "latitude": 4.089869,
        "longitude": -76.1914991,
        "city": "Tulua"
      }
    ]
  },
  "Comoros": {
    "None": [
      {
        "latitude": -12.7809488,
        "longitude": 45.227872,
        "city": "Mamoutzou"
      },
      {
        "latitude": -11.7172157,
        "longitude": 43.2473146,
        "city": "Moroni"
      }
    ]
  },
  "Costa_Rica": {
    "None": [
      {
        "latitude": 9.7539596,
        "longitude": -83.6773928,
        "city": "Cartago"
      },
      {
        "latitude": 10.6345964,
        "longitude": -85.4406747,
        "city": "Liberia"
      },
      {
        "latitude": 9.928069,
        "longitude": -84.090725,
        "city": "San_Jose"
      }
    ]
  },
  "Croatia": {
    "None": [
      {
        "latitude": 45.3314763,
        "longitude": 17.6744748,
        "city": "Pozega"
      },
      {
        "latitude": 44.8666232,
        "longitude": 13.8495788,
        "city": "Pula"
      },
      {
        "latitude": 43.5081323,
        "longitude": 16.4401935,
        "city": "Split"
      },
      {
        "latitude": 45.2879058,
        "longitude": 18.8056781,
        "city": "Vinkovci"
      },
      {
        "latitude": 45.8150108,
        "longitude": 15.981919,
        "city": "Zagreb"
      }
    ]
  },
  "Cuba": {
    "None": [
      {
        "latitude": 23.036551,
        "longitude": -81.213326,
        "city": "Cardenas"
      },
      {
        "latitude": 20.011737,
        "longitude": -75.1216254,
        "city": "Guantanamo_Bay"
      },
      {
        "latitude": 23.1135925,
        "longitude": -82.3665956,
        "city": "Havana"
      },
      {
        "latitude": 22.5767123,
        "longitude": -81.3399414,
        "city": "Matanzas"
      },
      {
        "latitude": 22.4133651,
        "longitude": -83.6880257,
        "city": "Pinar_del_Rio"
      },
      {
        "latitude": 22.424398,
        "longitude": -79.941655,
        "city": "Santa_Clara"
      }
    ]
  },
  "Curacao": {
    "None": [
      {
        "latitude": 12.1224221,
        "longitude": -68.8824233,
        "city": "Willemstad"
      }
    ]
  },
  "Cyprus": {
    "None": [
      {
        "latitude": 35.1855659,
        "longitude": 33.3822764,
        "city": "Nicosia"
      }
    ]
  },
  "Czech_Republic": {
    "None": [
      {
        "latitude": 49.1950602,
        "longitude": 16.6068371,
        "city": "Brno"
      },
      {
        "latitude": 49.7803923,
        "longitude": 18.4306254,
        "city": "Havirov"
      },
      {
        "latitude": 50.4531546,
        "longitude": 13.8069404,
        "city": "Jablonec"
      },
      {
        "latitude": 49.8209226,
        "longitude": 18.2625243,
        "city": "Ostrava"
      },
      {
        "latitude": 50.0755381,
        "longitude": 14.4378005,
        "city": "Prague"
      },
      {
        "latitude": 50.3380465,
        "longitude": 15.8612904,
        "city": "Roznov"
      },
      {
        "latitude": 49.2316758,
        "longitude": 13.5204093,
        "city": "Susice"
      },
      {
        "latitude": 50.587285,
        "longitude": 15.1568091,
        "city": "Turnov"
      },
      {
        "latitude": 50.5123719,
        "longitude": 16.0160733,
        "city": "Upice"
      },
      {
        "latitude": 50.6611164,
        "longitude": 14.0531456,
        "city": "Usti_nad_Labem"
      },
      {
        "latitude": 49.4718042,
        "longitude": 17.9711369,
        "city": "Valaske_Mezirici"
      },
      {
        "latitude": 48.9523773,
        "longitude": 17.3809152,
        "city": "Veseli_nad_Moravou"
      },
      {
        "latitude": 50.4037682,
        "longitude": 16.1166422,
        "city": "Vysokov"
      },
      {
        "latitude": 49.740105,
        "longitude": 15.1060638,
        "city": "Zruc_nad_Sazavou"
      }
    ]
  },
  "Denmark": {
    "None": [
      {
        "latitude": 57.0488195,
        "longitude": 9.921747,
        "city": "Aalborg"
      },
      {
        "latitude": 56.162939,
        "longitude": 10.203921,
        "city": "Aarhus"
      },
      {
        "latitude": 55.813912,
        "longitude": 11.501941,
        "city": "Asnaes"
      },
      {
        "latitude": 55.844295,
        "longitude": 12.422112,
        "city": "Birkerod"
      },
      {
        "latitude": 55.6760968,
        "longitude": 12.5683371,
        "city": "Copenhagen"
      },
      {
        "latitude": 55.476466,
        "longitude": 8.459405,
        "city": "Esbjerg"
      },
      {
        "latitude": 55.677069,
        "longitude": 12.513321,
        "city": "Frederiksberg"
      },
      {
        "latitude": 56.084962,
        "longitude": 12.458537,
        "city": "Hornbaek"
      },
      {
        "latitude": 55.883514,
        "longitude": 12.504924,
        "city": "Horsholm"
      },
      {
        "latitude": 55.495973,
        "longitude": 9.4730519,
        "city": "Kolding"
      },
      {
        "latitude": 64.1814099,
        "longitude": -51.694138,
        "city": "Nuuk"
      },
      {
        "latitude": 55.403756,
        "longitude": 10.40237,
        "city": "Odense"
      },
      {
        "latitude": 55.64191,
        "longitude": 12.087845,
        "city": "Rosklide"
      },
      {
        "latitude": 56.5651232,
        "longitude": 9.0309083,
        "city": "Skive"
      },
      {
        "latitude": 54.913811,
        "longitude": 9.792178,
        "city": "Sonderborg"
      },
      {
        "latitude": 56.48493,
        "longitude": 8.589933,
        "city": "Struer"
      },
      {
        "latitude": 55.7113112,
        "longitude": 9.5363541,
        "city": "Vejle"
      }
    ]
  },
  "Dominica": {
    "None": [
      {
        "latitude": 15.3091676,
        "longitude": -61.3793554,
        "city": "Roseau"
      }
    ]
  },
  "Dominican_Republic": {
    "None": [
      {
        "latitude": 18.4860575,
        "longitude": -69.9312117,
        "city": "Santo_Domingo"
      }
    ]
  },
  "Ecuador": {
    "None": [
      {
        "latitude": -2.1709979,
        "longitude": -79.9223592,
        "city": "Guayaquil"
      },
      {
        "latitude": -0.1806532,
        "longitude": -78.4678382,
        "city": "Quito"
      }
    ]
  },
  "Egypt": {
    "None": [
      {
        "latitude": 30.9213539,
        "longitude": 30.5748649,
        "city": "Alexandria"
      },
      {
        "latitude": 24.088938,
        "longitude": 32.8998293,
        "city": "Aswan"
      },
      {
        "latitude": 30.0444196,
        "longitude": 31.2357116,
        "city": "Cairo"
      },
      {
        "latitude": 29.9792345,
        "longitude": 31.1342019,
        "city": "Great_Pyramid_of_Giza"
      }
    ]
  },
  "El_Salvador": {
    "None": [
      {
        "latitude": 13.7208503,
        "longitude": -88.9365976,
        "city": "Cojutepeque"
      },
      {
        "latitude": 13.4451041,
        "longitude": -88.2461183,
        "city": "San_Miguel"
      },
      {
        "latitude": 13.6929403,
        "longitude": -89.2181911,
        "city": "San_Salvador"
      }
    ]
  },
  "Estonia": {
    "None": [
      {
        "latitude": 59.4369608,
        "longitude": 24.7535746,
        "city": "Tallinn"
      },
      {
        "latitude": 58.3776252,
        "longitude": 26.7290063,
        "city": "Tartu"
      }
    ]
  },
  "Ethiopia": {
    "None": [
      {
        "latitude": 8.9806034,
        "longitude": 38.7577605,
        "city": "Addis_Ababa"
      }
    ]
  },
  "Falkland_Islands": {
    "None": [
      {
        "latitude": -51.6977129,
        "longitude": -57.8516627,
        "city": "Stanley"
      }
    ]
  },
  "Fiji": {
    "None": [
      {
        "latitude": -18.1248086,
        "longitude": 178.4500789,
        "city": "Suva"
      }
    ]
  },
  "Finland": {
    "None": [
      {
        "latitude": 60.9928787,
        "longitude": 24.4590243,
        "city": "Hameenlinna"
      },
      {
        "latitude": 60.1698557,
        "longitude": 24.938379,
        "city": "Helsinki"
      },
      {
        "latitude": 62.6010155,
        "longitude": 29.7635719,
        "city": "Joensuu"
      },
      {
        "latitude": 61.8947473,
        "longitude": 27.8617615,
        "city": "Juva"
      },
      {
        "latitude": 62.2426034,
        "longitude": 25.7472567,
        "city": "Jyvaskyla"
      },
      {
        "latitude": 60.4665666,
        "longitude": 26.9459403,
        "city": "Kotka"
      },
      {
        "latitude": 60.8678835,
        "longitude": 26.7041601,
        "city": "Kouvola"
      },
      {
        "latitude": 62.89797,
        "longitude": 27.6781725,
        "city": "Kuopio"
      },
      {
        "latitude": 60.9826749,
        "longitude": 25.6612096,
        "city": "Lahti"
      },
      {
        "latitude": 61.0549929,
        "longitude": 28.1896628,
        "city": "Lappeenranta"
      },
      {
        "latitude": 61.6887271,
        "longitude": 27.2721457,
        "city": "Mikkeli"
      },
      {
        "latitude": 65.0120888,
        "longitude": 25.4650773,
        "city": "Oulu"
      },
      {
        "latitude": 61.4851393,
        "longitude": 21.7974178,
        "city": "Pori"
      },
      {
        "latitude": 61.4977524,
        "longitude": 23.7609535,
        "city": "Tampere"
      },
      {
        "latitude": 60.4518126,
        "longitude": 22.2666303,
        "city": "Turku"
      }
    ]
  },
  "France": {
    "None": [
      {
        "latitude": 43.529742,
        "longitude": 5.447427,
        "city": "Aix-en-Provence"
      },
      {
        "latitude": 41.919229,
        "longitude": 8.738635,
        "city": "Ajaccio"
      },
      {
        "latitude": 49.894067,
        "longitude": 2.295753,
        "city": "Amiens"
      },
      {
        "latitude": 47.478419,
        "longitude": -0.563166,
        "city": "Angers"
      },
      {
        "latitude": 48.9472096,
        "longitude": 2.2466847,
        "city": "Argenteuil"
      },
      {
        "latitude": 42.697283,
        "longitude": 9.450881,
        "city": "Bastia"
      },
      {
        "latitude": 47.237829,
        "longitude": 6.0240539,
        "city": "Besancon"
      },
      {
        "latitude": 43.4831519,
        "longitude": -1.558626,
        "city": "Biarritz"
      },
      {
        "latitude": 44.8678133,
        "longitude": -0.6036913,
        "city": "Bordeaux"
      },
      {
        "latitude": 48.8396952,
        "longitude": 2.2399123,
        "city": "Boulogne-Billancourt"
      },
      {
        "latitude": 47.081012,
        "longitude": 2.398782,
        "city": "Bourges"
      },
      {
        "latitude": 48.390394,
        "longitude": -4.486076,
        "city": "Brest"
      },
      {
        "latitude": 49.182863,
        "longitude": -0.370679,
        "city": "Caen"
      },
      {
        "latitude": 44.4475229,
        "longitude": 1.441989,
        "city": "Cahors"
      },
      {
        "latitude": 43.552847,
        "longitude": 7.017369,
        "city": "Cannes"
      },
      {
        "latitude": 45.777222,
        "longitude": 3.087025,
        "city": "Clermont-Ferrand"
      },
      {
        "latitude": 48.0793589,
        "longitude": 7.358512,
        "city": "Colmar"
      },
      {
        "latitude": 48.5919201,
        "longitude": 2.45965,
        "city": "Corbeil-Essonnes"
      },
      {
        "latitude": 47.322047,
        "longitude": 5.04148,
        "city": "Dijon"
      },
      {
        "latitude": 49.755601,
        "longitude": 0.380774,
        "city": "Fecamp"
      },
      {
        "latitude": 45.188529,
        "longitude": 5.724524,
        "city": "Grenoble"
      },
      {
        "latitude": 49.225282,
        "longitude": 5.99159,
        "city": "Homecourt"
      },
      {
        "latitude": 48.0785146,
        "longitude": -0.7669906,
        "city": "Laval"
      },
      {
        "latitude": 46.160329,
        "longitude": -1.151139,
        "city": "La_Rochelle"
      },
      {
        "latitude": 47.0201909,
        "longitude": 1.694777,
        "city": "Les_Abymes"
      },
      {
        "latitude": 49.49437,
        "longitude": 0.107929,
        "city": "Le_Havre"
      },
      {
        "latitude": 48.00611,
        "longitude": 0.199556,
        "city": "Le_Mans"
      },
      {
        "latitude": 50.62925,
        "longitude": 3.057256,
        "city": "Lille"
      },
      {
        "latitude": 45.833619,
        "longitude": 1.261105,
        "city": "Limoges"
      },
      {
        "latitude": 45.764043,
        "longitude": 4.835659,
        "city": "Lyon"
      },
      {
        "latitude": 48.989323,
        "longitude": 1.714958,
        "city": "Mantes_la_Jolie"
      },
      {
        "latitude": 43.296482,
        "longitude": 5.36978,
        "city": "Marseille"
      },
      {
        "latitude": 45.397528,
        "longitude": 6.56436,
        "city": "Meribel"
      },
      {
        "latitude": 49.1193089,
        "longitude": 6.1757156,
        "city": "Metz"
      },
      {
        "latitude": 43.610769,
        "longitude": 3.876716,
        "city": "Montpellier"
      },
      {
        "latitude": 48.863812,
        "longitude": 2.448451,
        "city": "Montreuil"
      },
      {
        "latitude": 47.750839,
        "longitude": 7.335888,
        "city": "Mulhouse"
      },
      {
        "latitude": 48.692054,
        "longitude": 6.184417,
        "city": "Nancy"
      },
      {
        "latitude": 47.218371,
        "longitude": -1.553621,
        "city": "Nantes"
      },
      {
        "latitude": 46.990896,
        "longitude": 3.162845,
        "city": "Nevers"
      },
      {
        "latitude": 43.7101728,
        "longitude": 7.2619532,
        "city": "Nice"
      },
      {
        "latitude": 43.836699,
        "longitude": 4.360054,
        "city": "Nimes"
      },
      {
        "latitude": 49.029116,
        "longitude": 1.852215,
        "city": "Oinville_sur_Montcient"
      },
      {
        "latitude": 47.902964,
        "longitude": 1.909251,
        "city": "Orleans"
      },
      {
        "latitude": 48.856614,
        "longitude": 2.352222,
        "city": "Paris"
      },
      {
        "latitude": 42.711622,
        "longitude": 2.853978,
        "city": "Perpignan"
      },
      {
        "latitude": 48.173423,
        "longitude": 2.255849,
        "city": "Pithiviers"
      },
      {
        "latitude": 46.580224,
        "longitude": 0.340375,
        "city": "Poitiers"
      },
      {
        "latitude": 49.258329,
        "longitude": 4.031696,
        "city": "Reims"
      },
      {
        "latitude": 48.0782017,
        "longitude": -1.7195832,
        "city": "Rennes"
      },
      {
        "latitude": 45.8939949,
        "longitude": 3.114932,
        "city": "Riom"
      },
      {
        "latitude": 50.6927049,
        "longitude": 3.177847,
        "city": "Roubaix"
      },
      {
        "latitude": 49.443232,
        "longitude": 1.099971,
        "city": "Rouen"
      },
      {
        "latitude": 45.623027,
        "longitude": -1.043182,
        "city": "Royan"
      },
      {
        "latitude": -20.8747731,
        "longitude": 55.4474071,
        "city": "Saint_Denis_Reunion"
      },
      {
        "latitude": 45.439695,
        "longitude": 4.3871779,
        "city": "Saint_Etienne"
      },
      {
        "latitude": -20.9361022,
        "longitude": 55.3317422,
        "city": "Saint_Paul_Reunion"
      },
      {
        "latitude": 48.5734053,
        "longitude": 7.7521113,
        "city": "Strasbourg"
      },
      {
        "latitude": 43.124228,
        "longitude": 5.928,
        "city": "Toulon"
      },
      {
        "latitude": 43.604652,
        "longitude": 1.444209,
        "city": "Toulouse"
      },
      {
        "latitude": 47.394144,
        "longitude": 0.68484,
        "city": "Tours"
      },
      {
        "latitude": 49.509594,
        "longitude": -1.469216,
        "city": "Valognes"
      },
      {
        "latitude": 49.091958,
        "longitude": 1.488107,
        "city": "Vernon"
      },
      {
        "latitude": 50.6232523,
        "longitude": 3.1442651,
        "city": "Villeneuve_d_Ascq"
      },
      {
        "latitude": 45.771944,
        "longitude": 4.8901709,
        "city": "Villeurbanne"
      }
    ]
  },
  "French_Guiana": {
    "None": [
      {
        "latitude": 4.92242,
        "longitude": -52.3134531,
        "city": "Cayenne"
      },
      {
        "latitude": 5.1611312,
        "longitude": -52.6493342,
        "city": "Kourou"
      }
    ]
  },
  "Gabon": {
    "None": [
      {
        "latitude": 0.4161976,
        "longitude": 9.4672676,
        "city": "Libreville"
      },
      {
        "latitude": -0.7351026,
        "longitude": 8.7591311,
        "city": "Port_Gentil"
      }
    ]
  },
  "Gambia": {
    "None": [
      {
        "latitude": 13.4548761,
        "longitude": -16.5790323,
        "city": "Banjul"
      }
    ]
  },
  "Georgia": {
    "None": [
      {
        "latitude": 41.7151377,
        "longitude": 44.827096,
        "city": "Tbilisi"
      }
    ]
  },
  "Germany": {
    "None": [
      {
        "latitude": 50.7753455,
        "longitude": 6.0838868,
        "city": "Aachen"
      },
      {
        "latitude": 53.0092,
        "longitude": 9.0510401,
        "city": "Achim"
      },
      {
        "latitude": 49.4403198,
        "longitude": 11.8633445,
        "city": "Amberg"
      },
      {
        "latitude": 48.3705449,
        "longitude": 10.89779,
        "city": "Augsburg"
      },
      {
        "latitude": 50.3230337,
        "longitude": 10.2028107,
        "city": "Bad_Neustadt"
      },
      {
        "latitude": 51.3309319,
        "longitude": 7.8646236,
        "city": "Balve"
      },
      {
        "latitude": 49.8988135,
        "longitude": 10.9027636,
        "city": "Bamberg"
      },
      {
        "latitude": 49.9456399,
        "longitude": 11.5713346,
        "city": "Bayreuth"
      },
      {
        "latitude": 50.9923091,
        "longitude": 7.1286213,
        "city": "Bergisch_Gladbach"
      },
      {
        "latitude": 52.5200066,
        "longitude": 13.404954,
        "city": "Berlin"
      },
      {
        "latitude": 52.0302285,
        "longitude": 8.5324708,
        "city": "Bielefeld"
      },
      {
        "latitude": 49.6512438,
        "longitude": 7.1631611,
        "city": "Birkenfeld"
      },
      {
        "latitude": 51.4818445,
        "longitude": 7.2162363,
        "city": "Bochum"
      },
      {
        "latitude": 50.73743,
        "longitude": 7.0982068,
        "city": "Bonn"
      },
      {
        "latitude": 51.529086,
        "longitude": 6.9446888,
        "city": "Bottrop"
      },
      {
        "latitude": 52.2688736,
        "longitude": 10.5267696,
        "city": "Braunschweig"
      },
      {
        "latitude": 53.0792962,
        "longitude": 8.8016937,
        "city": "Bremen"
      },
      {
        "latitude": 53.5395845,
        "longitude": 8.5809424,
        "city": "Bremerhaven"
      },
      {
        "latitude": 53.4674857,
        "longitude": 9.6915741,
        "city": "Buxtehude"
      },
      {
        "latitude": 52.6175963,
        "longitude": 10.0628515,
        "city": "Celle"
      },
      {
        "latitude": 50.827845,
        "longitude": 12.9213697,
        "city": "Chemnitz"
      },
      {
        "latitude": 50.937531,
        "longitude": 6.9602786,
        "city": "Cologne"
      },
      {
        "latitude": 48.080821,
        "longitude": 11.286046,
        "city": "Columbus_Control_Center_Oberpfaffenhofen"
      },
      {
        "latitude": 51.7563108,
        "longitude": 14.3328679,
        "city": "Cottbus"
      },
      {
        "latitude": 53.1878413,
        "longitude": 10.7397201,
        "city": "Dahlenburg"
      },
      {
        "latitude": 49.8728253,
        "longitude": 8.6511929,
        "city": "Darmstadt"
      },
      {
        "latitude": 48.8408515,
        "longitude": 12.9574787,
        "city": "Deggendorf"
      },
      {
        "latitude": 51.5135872,
        "longitude": 7.4652981,
        "city": "Dortmund"
      },
      {
        "latitude": 51.0504088,
        "longitude": 13.7372621,
        "city": "Dresden"
      },
      {
        "latitude": 51.4344079,
        "longitude": 6.7623293,
        "city": "Duisburg"
      },
      {
        "latitude": 51.2277411,
        "longitude": 6.7734556,
        "city": "Dusseldorf"
      },
      {
        "latitude": 50.0289744,
        "longitude": 8.119173,
        "city": "Eltville"
      },
      {
        "latitude": 52.6146118,
        "longitude": 6.8535832,
        "city": "Emlichheim"
      },
      {
        "latitude": 50.9847679,
        "longitude": 11.0298799,
        "city": "Erfurt"
      },
      {
        "latitude": 51.0784539,
        "longitude": 6.315907,
        "city": "Erkelenz"
      },
      {
        "latitude": 49.5896744,
        "longitude": 11.0119611,
        "city": "Erlangen"
      },
      {
        "latitude": 51.4556432,
        "longitude": 7.0115552,
        "city": "Essen"
      },
      {
        "latitude": 54.7937431,
        "longitude": 9.4469964,
        "city": "Flensburg"
      },
      {
        "latitude": 50.1109221,
        "longitude": 8.6821267,
        "city": "Frankfurt_am_Main"
      },
      {
        "latitude": 52.3472237,
        "longitude": 14.5505673,
        "city": "Frankfurt_an_der_Oder"
      },
      {
        "latitude": 47.9990077,
        "longitude": 7.8421043,
        "city": "Freiburg_im_Breisgau"
      },
      {
        "latitude": 49.4771169,
        "longitude": 10.988667,
        "city": "Furth"
      },
      {
        "latitude": 51.517744,
        "longitude": 7.0857172,
        "city": "Gelsenkirchen"
      },
      {
        "latitude": 49.6534732,
        "longitude": 9.9452462,
        "city": "Giebelstadt"
      },
      {
        "latitude": 50.5840512,
        "longitude": 8.6784031,
        "city": "Giessen"
      },
      {
        "latitude": 51.1506269,
        "longitude": 14.968707,
        "city": "Gorlitz"
      },
      {
        "latitude": 51.5412804,
        "longitude": 9.9158035,
        "city": "Gottingen"
      },
      {
        "latitude": 54.0865463,
        "longitude": 13.3923414,
        "city": "Greifswald"
      },
      {
        "latitude": 48.0424069,
        "longitude": 7.8669466,
        "city": "Gundelfingen"
      },
      {
        "latitude": 51.9032375,
        "longitude": 8.3857535,
        "city": "Gutersloh"
      },
      {
        "latitude": 51.3670777,
        "longitude": 7.4632841,
        "city": "Hagen"
      },
      {
        "latitude": 51.4969802,
        "longitude": 11.9688029,
        "city": "Halle-Saale"
      },
      {
        "latitude": 53.5510846,
        "longitude": 9.9936818,
        "city": "Hamburg"
      },
      {
        "latitude": 51.6738583,
        "longitude": 7.8159816,
        "city": "Hamm"
      },
      {
        "latitude": 50.1264123,
        "longitude": 8.9283105,
        "city": "Hanau"
      },
      {
        "latitude": 52.3758916,
        "longitude": 9.7320104,
        "city": "Hannover"
      },
      {
        "latitude": 49.3987524,
        "longitude": 8.6724335,
        "city": "Heidelberg"
      },
      {
        "latitude": 49.1426929,
        "longitude": 9.210879,
        "city": "Heilbronn"
      },
      {
        "latitude": 52.228966,
        "longitude": 11.009544,
        "city": "Helmstedt"
      },
      {
        "latitude": 49.6430169,
        "longitude": 8.6675419,
        "city": "Heppenheim"
      },
      {
        "latitude": 51.5368948,
        "longitude": 7.2009147,
        "city": "Herne"
      },
      {
        "latitude": 48.5950369,
        "longitude": 8.8671577,
        "city": "Herrenberg"
      },
      {
        "latitude": 51.6020534,
        "longitude": 7.1389575,
        "city": "Herten"
      },
      {
        "latitude": 52.154778,
        "longitude": 9.9579652,
        "city": "Hildesheim"
      },
      {
        "latitude": 50.3135391,
        "longitude": 11.9127814,
        "city": "Hof"
      },
      {
        "latitude": 47.8810573,
        "longitude": 11.6997577,
        "city": "Holzkirchen"
      },
      {
        "latitude": 49.714528,
        "longitude": 7.3071512,
        "city": "Idar-Oberstein"
      },
      {
        "latitude": 48.7665351,
        "longitude": 11.4257541,
        "city": "Ingolstadt"
      },
      {
        "latitude": 48.2056508,
        "longitude": 12.0535383,
        "city": "Isen"
      },
      {
        "latitude": 50.927054,
        "longitude": 11.5892372,
        "city": "Jena"
      },
      {
        "latitude": 49.4400657,
        "longitude": 7.7491265,
        "city": "Kaiserslautern"
      },
      {
        "latitude": 49.0068901,
        "longitude": 8.4036527,
        "city": "Karlsruhe"
      },
      {
        "latitude": 51.3127114,
        "longitude": 9.4797461,
        "city": "Kassel"
      },
      {
        "latitude": 51.3649942,
        "longitude": 6.4205309,
        "city": "Kempen"
      },
      {
        "latitude": 54.3232927,
        "longitude": 10.1227652,
        "city": "Kiel"
      },
      {
        "latitude": 50.3569429,
        "longitude": 7.5889959,
        "city": "Koblenz"
      },
      {
        "latitude": 47.6779496,
        "longitude": 9.1732384,
        "city": "Konstanz"
      },
      {
        "latitude": 51.3387609,
        "longitude": 6.5853417,
        "city": "Krefeld"
      },
      {
        "latitude": 54.411313,
        "longitude": 9.5090762,
        "city": "Kropp"
      },
      {
        "latitude": 49.198886,
        "longitude": 8.1185622,
        "city": "Landau"
      },
      {
        "latitude": 48.5441917,
        "longitude": 12.1468532,
        "city": "Landshut"
      },
      {
        "latitude": 51.102509,
        "longitude": 7.0096126,
        "city": "Leichlingen"
      },
      {
        "latitude": 51.3396955,
        "longitude": 12.3730747,
        "city": "Leipzig"
      },
      {
        "latitude": 48.7960447,
        "longitude": 9.0095706,
        "city": "Leonberg"
      },
      {
        "latitude": 51.0459248,
        "longitude": 7.0192196,
        "city": "Leverkusen"
      },
      {
        "latitude": 53.8654673,
        "longitude": 10.6865593,
        "city": "Lubeck"
      },
      {
        "latitude": 51.2191038,
        "longitude": 7.63126,
        "city": "Ludenscheid"
      },
      {
        "latitude": 49.47741,
        "longitude": 8.44518,
        "city": "Ludwigshafen"
      },
      {
        "latitude": 53.2464214,
        "longitude": 10.4115179,
        "city": "Luneburg"
      },
      {
        "latitude": 52.1205333,
        "longitude": 11.6276237,
        "city": "Magdeburg"
      },
      {
        "latitude": 49.9928617,
        "longitude": 8.2472526,
        "city": "Mainz"
      },
      {
        "latitude": 49.4874592,
        "longitude": 8.4660395,
        "city": "Mannheim"
      },
      {
        "latitude": 50.8021728,
        "longitude": 8.7667933,
        "city": "Marburg"
      },
      {
        "latitude": 52.6953479,
        "longitude": 7.2994007,
        "city": "Meppen"
      },
      {
        "latitude": 51.0427059,
        "longitude": 12.3024728,
        "city": "Meuselwitz"
      },
      {
        "latitude": 52.2964919,
        "longitude": 8.8949206,
        "city": "Minden"
      },
      {
        "latitude": 51.4516041,
        "longitude": 6.6408148,
        "city": "Moers"
      },
      {
        "latitude": 51.1804572,
        "longitude": 6.4428041,
        "city": "Monchengladbach"
      },
      {
        "latitude": 51.4185682,
        "longitude": 6.8845226,
        "city": "Mulheim"
      },
      {
        "latitude": 48.1351253,
        "longitude": 11.5819806,
        "city": "Munchen"
      },
      {
        "latitude": 51.7697275,
        "longitude": 7.6972329,
        "city": "Munster"
      },
      {
        "latitude": 51.1520283,
        "longitude": 11.8142454,
        "city": "Naumburg"
      },
      {
        "latitude": 50.9150588,
        "longitude": 8.1072664,
        "city": "Netphen"
      },
      {
        "latitude": 51.2041968,
        "longitude": 6.6879511,
        "city": "Neuss"
      },
      {
        "latitude": 49.3501864,
        "longitude": 8.1486886,
        "city": "Neustadt"
      },
      {
        "latitude": 51.7001785,
        "longitude": 9.9959057,
        "city": "Northeim"
      },
      {
        "latitude": 49.45203,
        "longitude": 11.07675,
        "city": "Nuremberg"
      },
      {
        "latitude": 48.624421,
        "longitude": 9.3469069,
        "city": "Nurtingen"
      },
      {
        "latitude": 50.0956362,
        "longitude": 8.7760843,
        "city": "Offenbach"
      },
      {
        "latitude": 53.1434501,
        "longitude": 8.2145521,
        "city": "Oldenburg"
      },
      {
        "latitude": 52.2799112,
        "longitude": 8.0471788,
        "city": "Osnabruck"
      },
      {
        "latitude": 48.7019417,
        "longitude": 13.0178291,
        "city": "Osterhofen"
      },
      {
        "latitude": 51.7189205,
        "longitude": 8.7575093,
        "city": "Paderborn"
      },
      {
        "latitude": 48.8921862,
        "longitude": 8.6946286,
        "city": "Pforzheim"
      },
      {
        "latitude": 52.3905689,
        "longitude": 13.0644729,
        "city": "Potsdam"
      },
      {
        "latitude": 49.445759,
        "longitude": 7.5545404,
        "city": "Ramstein"
      },
      {
        "latitude": 53.2445468,
        "longitude": 8.2005361,
        "city": "Rastede"
      },
      {
        "latitude": 51.6140649,
        "longitude": 7.1979453,
        "city": "Recklinghausen"
      },
      {
        "latitude": 49.0134297,
        "longitude": 12.1016236,
        "city": "Regensburg"
      },
      {
        "latitude": 51.1787418,
        "longitude": 7.1896962,
        "city": "Remscheid"
      },
      {
        "latitude": 48.5069389,
        "longitude": 9.2038043,
        "city": "Reutlingen"
      },
      {
        "latitude": 51.8458575,
        "longitude": 8.2997425,
        "city": "Rheda-Wdbrck"
      },
      {
        "latitude": 50.0012757,
        "longitude": 8.8769235,
        "city": "Rodgau"
      },
      {
        "latitude": 54.0924406,
        "longitude": 12.0991466,
        "city": "Rostock"
      },
      {
        "latitude": 49.2401572,
        "longitude": 6.9969327,
        "city": "Saarbrucken"
      },
      {
        "latitude": 52.1378659,
        "longitude": 10.3899126,
        "city": "Salzgitter"
      },
      {
        "latitude": 54.5239312,
        "longitude": 9.563227,
        "city": "Schleswig"
      },
      {
        "latitude": 51.2882674,
        "longitude": 7.291086,
        "city": "Schwelm"
      },
      {
        "latitude": 51.5189796,
        "longitude": 13.996908,
        "city": "Senftenberg"
      },
      {
        "latitude": 50.8838492,
        "longitude": 8.0209591,
        "city": "Siegen"
      },
      {
        "latitude": 51.1702072,
        "longitude": 7.0831408,
        "city": "Solingen"
      },
      {
        "latitude": 49.9729369,
        "longitude": 6.7019995,
        "city": "Spangdahlem_Air_Base"
      },
      {
        "latitude": 48.7758459,
        "longitude": 9.1829321,
        "city": "Stuttgart"
      },
      {
        "latitude": 49.749992,
        "longitude": 6.6371433,
        "city": "Trier"
      },
      {
        "latitude": 48.0252373,
        "longitude": 12.5552575,
        "city": "Trostberg"
      },
      {
        "latitude": 48.5216364,
        "longitude": 9.0576448,
        "city": "Tubingen"
      },
      {
        "latitude": 48.4010822,
        "longitude": 9.9876076,
        "city": "Ulm"
      },
      {
        "latitude": 50.506679,
        "longitude": 8.93424,
        "city": "Villingen"
      },
      {
        "latitude": 49.3063689,
        "longitude": 8.6427693,
        "city": "Walldorf"
      },
      {
        "latitude": 49.544964,
        "longitude": 8.6602703,
        "city": "Weinheim"
      },
      {
        "latitude": 50.0782184,
        "longitude": 8.2397608,
        "city": "Wiesbaden"
      },
      {
        "latitude": 53.3574436,
        "longitude": 10.2127204,
        "city": "Winsen"
      },
      {
        "latitude": 51.4438926,
        "longitude": 7.353197,
        "city": "Witten"
      },
      {
        "latitude": 52.4226503,
        "longitude": 10.7865461,
        "city": "Wolfsburg"
      },
      {
        "latitude": 49.7913044,
        "longitude": 9.9533548,
        "city": "Wuerzburg"
      },
      {
        "latitude": 51.2562128,
        "longitude": 7.1507636,
        "city": "Wuppertal"
      }
    ]
  },
  "Ghana": {
    "None": [
      {
        "latitude": 5.6037168,
        "longitude": -0.1869644,
        "city": "Accra"
      }
    ]
  },
  "Greece": {
    "None": [
      {
        "latitude": 37.98381,
        "longitude": 23.727539,
        "city": "Athens"
      },
      {
        "latitude": 35.3387352,
        "longitude": 25.1442126,
        "city": "Iraklion"
      },
      {
        "latitude": 37.9429857,
        "longitude": 23.6469832,
        "city": "Piraeus"
      },
      {
        "latitude": 40.6400629,
        "longitude": 22.9444191,
        "city": "Thessaloniki"
      }
    ]
  },
  "Grenada": {
    "Saint_George": [
      {
        "latitude": 12.0560975,
        "longitude": -61.7487996,
        "city": "Saint_Georges"
      }
    ]
  },
  "Guadeloupe": {
    "None": [
      {
        "latitude": 16.2376869,
        "longitude": -61.5340424,
        "city": "Pointe_a_Pitre"
      }
    ]
  },
  "Guatemala": {
    "None": [
      {
        "latitude": 14.6349149,
        "longitude": -90.5068824,
        "city": "Guatemala_City"
      },
      {
        "latitude": 14.85207,
        "longitude": -91.530547,
        "city": "Quesaltenango"
      }
    ]
  },
  "Guyana": {
    "None": [
      {
        "latitude": 6.801279,
        "longitude": -58.155125,
        "city": "Georgetown"
      }
    ]
  },
  "Haiti": {
    "None": [
      {
        "latitude": 18.594395,
        "longitude": -72.3074326,
        "city": "Port-au-Prince"
      }
    ]
  },
  "Honduras": {
    "None": [
      {
        "latitude": 16.3239655,
        "longitude": -86.5350176,
        "city": "Roatan"
      },
      {
        "latitude": 15.5149204,
        "longitude": -87.9922684,
        "city": "San_Pedro_Sula"
      },
      {
        "latitude": 14.0722751,
        "longitude": -87.192136,
        "city": "Tegucigalpa"
      }
    ]
  },
  "Hong_Kong": {
    "None": [
      {
        "latitude": 22.396428,
        "longitude": 114.109497,
        "city": "Hong_Kong"
      }
    ]
  },
  "Hungary": {
    "None": [
      {
        "latitude": 46.6735939,
        "longitude": 21.0877309,
        "city": "Bekescsaba"
      },
      {
        "latitude": 47.497912,
        "longitude": 19.040235,
        "city": "Budapest"
      },
      {
        "latitude": 47.5316049,
        "longitude": 21.6273123,
        "city": "Debrecen"
      },
      {
        "latitude": 47.9025348,
        "longitude": 20.3772284,
        "city": "Eger"
      },
      {
        "latitude": 47.6874569,
        "longitude": 17.6503974,
        "city": "Gyor"
      },
      {
        "latitude": 46.3593606,
        "longitude": 17.7967639,
        "city": "Kaposvar"
      },
      {
        "latitude": 46.8963711,
        "longitude": 19.6896861,
        "city": "Kecskemet"
      },
      {
        "latitude": 46.7654716,
        "longitude": 17.2479554,
        "city": "Keszthely"
      },
      {
        "latitude": 48.1034775,
        "longitude": 20.7784384,
        "city": "Miskolc"
      },
      {
        "latitude": 47.9495324,
        "longitude": 21.7244053,
        "city": "Nyiregyhaza"
      },
      {
        "latitude": 46.0727345,
        "longitude": 18.232266,
        "city": "Pecs"
      },
      {
        "latitude": 48.0935237,
        "longitude": 19.7999813,
        "city": "Salgotarjan"
      },
      {
        "latitude": 46.2530102,
        "longitude": 20.1414253,
        "city": "Szeged"
      },
      {
        "latitude": 47.1860262,
        "longitude": 18.4221358,
        "city": "Szekesfehervar"
      },
      {
        "latitude": 46.3474326,
        "longitude": 18.7062293,
        "city": "Szekszard"
      },
      {
        "latitude": 47.1621355,
        "longitude": 20.1824712,
        "city": "Szolnok"
      },
      {
        "latitude": 47.2306851,
        "longitude": 16.6218441,
        "city": "Szombathely"
      },
      {
        "latitude": 47.569246,
        "longitude": 18.404818,
        "city": "Tatabanya"
      },
      {
        "latitude": 46.4258265,
        "longitude": 18.7752069,
        "city": "Tolna"
      },
      {
        "latitude": 47.1028087,
        "longitude": 17.9093019,
        "city": "Veszprem"
      },
      {
        "latitude": 46.8416936,
        "longitude": 16.8416322,
        "city": "Zalaegerszeg"
      }
    ]
  },
  "Iceland": {
    "None": [
      {
        "latitude": 64.1265206,
        "longitude": -21.8174393,
        "city": "Reykjavik"
      }
    ]
  },
  "India": {
    "None": [
      {
        "latitude": 23.831457,
        "longitude": 91.2867777,
        "city": "Agartala"
      },
      {
        "latitude": 27.1766701,
        "longitude": 78.0080745,
        "city": "Agra"
      },
      {
        "latitude": 23.727107,
        "longitude": 92.7176389,
        "city": "Aizawl"
      },
      {
        "latitude": 25.4358011,
        "longitude": 81.846311,
        "city": "Allahabad"
      },
      {
        "latitude": 19.8761653,
        "longitude": 75.3433139,
        "city": "Aurangabad"
      },
      {
        "latitude": 12.9127524,
        "longitude": 77.6076472,
        "city": "Bengaluru"
      },
      {
        "latitude": 23.2599333,
        "longitude": 77.412615,
        "city": "Bhopal"
      },
      {
        "latitude": 20.2960587,
        "longitude": 85.8245398,
        "city": "Bhubaneswar"
      },
      {
        "latitude": 30.7333148,
        "longitude": 76.7794179,
        "city": "Chandigarh"
      },
      {
        "latitude": 12.8682072,
        "longitude": 80.2148769,
        "city": "Chennai"
      },
      {
        "latitude": 11.0168445,
        "longitude": 76.9558321,
        "city": "Coimbatore"
      },
      {
        "latitude": 20.3973736,
        "longitude": 72.8327991,
        "city": "Daman"
      },
      {
        "latitude": 30.3164945,
        "longitude": 78.0321918,
        "city": "Dehradun"
      },
      {
        "latitude": 28.7040592,
        "longitude": 77.1024902,
        "city": "Delhi"
      },
      {
        "latitude": 23.7956531,
        "longitude": 86.4303859,
        "city": "Dhanbad"
      },
      {
        "latitude": 26.1433459,
        "longitude": 91.7897953,
        "city": "Dispur"
      },
      {
        "latitude": 23.2156354,
        "longitude": 72.6369415,
        "city": "Gandhinagar"
      },
      {
        "latitude": 27.3389356,
        "longitude": 88.6065035,
        "city": "Gangtok"
      },
      {
        "latitude": 15.2993265,
        "longitude": 74.123996,
        "city": "Goa"
      },
      {
        "latitude": 17.385044,
        "longitude": 78.486671,
        "city": "Hyderabad"
      },
      {
        "latitude": 24.8170111,
        "longitude": 93.9368439,
        "city": "Imphal"
      },
      {
        "latitude": 22.7195687,
        "longitude": 75.8577258,
        "city": "Indore"
      },
      {
        "latitude": 27.0843682,
        "longitude": 93.6053163,
        "city": "Itanagar"
      },
      {
        "latitude": 23.181467,
        "longitude": 79.9864071,
        "city": "Jabalpur"
      },
      {
        "latitude": 26.9124336,
        "longitude": 75.7872709,
        "city": "Jaipur"
      },
      {
        "latitude": 22.470702,
        "longitude": 70.05773,
        "city": "Jamnagar"
      },
      {
        "latitude": 10.5593204,
        "longitude": 72.6358134,
        "city": "Kavaratti"
      },
      {
        "latitude": 25.6585963,
        "longitude": 94.1053307,
        "city": "Kohima"
      },
      {
        "latitude": 16.7049873,
        "longitude": 74.2432527,
        "city": "Kolhapur"
      },
      {
        "latitude": 22.572646,
        "longitude": 88.363895,
        "city": "Kolkata"
      },
      {
        "latitude": 26.8466937,
        "longitude": 80.946166,
        "city": "Lucknow"
      },
      {
        "latitude": 30.900965,
        "longitude": 75.8572758,
        "city": "Ludhiana"
      },
      {
        "latitude": 19.0408636,
        "longitude": 72.8434571,
        "city": "Mumbai"
      },
      {
        "latitude": 21.1458004,
        "longitude": 79.0881546,
        "city": "Nagpur"
      },
      {
        "latitude": 28.6900124,
        "longitude": 77.2079272,
        "city": "New_Delhi"
      },
      {
        "latitude": 15.4909301,
        "longitude": 73.8278496,
        "city": "Panaji"
      },
      {
        "latitude": 25.5940947,
        "longitude": 85.1375645,
        "city": "Patna"
      },
      {
        "latitude": 11.9138598,
        "longitude": 79.8144722,
        "city": "Pondicherry"
      },
      {
        "latitude": 11.6233774,
        "longitude": 92.7264828,
        "city": "Port_Blair"
      },
      {
        "latitude": 18.5204303,
        "longitude": 73.8567437,
        "city": "Pune"
      },
      {
        "latitude": 21.2513844,
        "longitude": 81.6296413,
        "city": "Raipur"
      },
      {
        "latitude": 17.0005383,
        "longitude": 81.8040345,
        "city": "Rajahmundry"
      },
      {
        "latitude": 22.3038945,
        "longitude": 70.8021599,
        "city": "Rajkot"
      },
      {
        "latitude": 23.3440997,
        "longitude": 85.309562,
        "city": "Ranchi"
      },
      {
        "latitude": 25.5787726,
        "longitude": 91.8932535,
        "city": "Shillong"
      },
      {
        "latitude": 31.1048145,
        "longitude": 77.1734033,
        "city": "Shimla"
      },
      {
        "latitude": 26.7271012,
        "longitude": 88.3952861,
        "city": "Siliguri"
      },
      {
        "latitude": 20.2762659,
        "longitude": 73.0083061,
        "city": "Silvassa"
      },